hillnumber, hillname, region, parent, classification, metres, feet, gridref, gridref10, colgridref, colheight, drop, feature, observations, survey, revision, comments, map50, map25, xcoord, ycoord, latitude, longitude, country, climbed, tumponly,Ma,Ma=,Hu,Hu=,Tu,Sim,5,M,MT,F,C,G,D,DT,Hew,N,Dew,DDew,HF,4,3,2,1,0,W,WO,B,Sy,Fel,CoH,CoA,CoU,CoL,SIB,sMa,sHu,sSim,s5,s4,Mur,CT,GT,DN,BL,Bg,T100,xMT,xC,xG,xN,xDT,O,Un,P600,P500
2877,"High Willhays","40",,"Ma,Sim,Hew,N, CoH,CoU,CoA","621","2037","SX580892","SX 58027 89220","ST651119","84","537","large cairn on rock tor","","Abney level","2009-11-20","","191","OL28N","258024","89214","50.685203","-4.011163","E","",0,1,0,1,0,1,1,0,0,0,0,0,0,0,0,1,1,0,0,0,0,0,0,0,0,0,0,0,0,0,1,1,1,0,0,0,0,0,0,0,0,0,0,0,1,1,0,0,0,0,0,0,0,0,0,1
2878,"Yes Tor","40",2877,"N,sSim","619","2031","SX580901","SX 58093 90152","SX579899","595","24","trig point on rock tor","","obvious summit","2001-10-28","","191","OL28N 113","258090","90146","50.693595","-4.010588","E","",0,0,0,0,0,0,0,0,0,0,0,0,0,0,0,0,1,0,0,0,0,0,0,0,0,0,0,0,0,0,0,0,0,0,0,0,0,1,0,0,0,0,0,0,1,1,1,0,0,0,0,0,0,0,0,0
2879,"Cut Hill","40",2877,"Sim,Dew,sHu","603","1978","SX598827","SX 59818 82745","SX592883","513","90","grassy mound","","Abney level","2001-10-28","","191","OL28N","259815","82739","50.627443","-3.983373","E","",0,0,0,0,0,1,1,0,0,0,0,0,0,0,0,0,0,1,0,0,0,0,0,0,0,0,0,0,0,0,0,0,0,0,0,0,1,0,0,0,0,0,0,0,0,0,0,0,0,0,0,0,0,0,0,0
2880,"Hangingstone Hill","40",2877,"Sim,Dew","603","1978","SX617861","SX 61703 86136","SX601839","555","48","small cairn on mound of grass and stones 10m N of stone hut","Whitehorse Hill 650m S at SX 61738 85483 has 602m spot on 1:25k map and 601m on Harvey map","","2001-10-28","","191","OL28N","261700","86130","50.658371","-3.958005","E","",0,0,0,0,0,1,1,0,0,0,0,0,0,0,0,0,0,1,0,0,0,0,0,0,0,0,0,0,0,0,0,0,0,0,0,0,0,0,0,0,0,0,0,0,0,0,0,0,0,0,0,0,0,0,0,0
2881,"Brown Willy","40",,"Ma,4,CoH,CoU, CoA","420","1378","SX158799","SX 15873 80004","SS268015","106","314","trig point and cairn","cairn is 3m E of trig point","obvious summit","2001-10-28","","201","109","215870","79998","50.590592","-4.602736","E","",0,1,0,1,0,1,0,0,0,0,0,0,0,0,0,0,0,0,0,0,1,0,0,0,0,0,0,0,0,0,1,1,1,0,0,0,0,0,0,0,0,0,0,0,0,0,0,0,0,0,0,0,0,0,0,0
2882,"Mardon Down","40",2877,"Hu,3,sMa","356","1168","SX767870","SX 76772 87093","SX749863","211","145","rock","cairn 360m N at SX 76764 87459 is lower","Abney level","2001-10-28","Alternative summit 356m at SX767874","191","OL28N","276769","87087","50.670359","-3.74524","E","",0,0,0,1,0,1,0,0,0,0,0,0,0,0,0,0,0,0,0,0,0,1,0,0,0,0,0,0,0,0,0,0,0,0,0,1,0,0,0,0,0,0,0,0,0,0,0,0,0,0,0,0,0,0,0,0
2883,"Kit Hill","40",,"Ma,3","334","1096","SX374713","SX 37487 71343","SX301760","163","171","ground at base of chimney","trig point 60m E at SX 37544 71361 is about 1.5m lower","Abney level","2007-03-10","","201","108","237484","71337","50.519186","-4.293869","E","",0,1,0,1,0,1,0,0,0,0,0,0,0,0,0,0,0,0,0,0,0,1,0,0,0,0,0,0,0,0,0,0,0,0,0,0,0,0,0,0,0,0,0,0,0,0,0,0,0,0,0,0,0,0,0,0
2884,"Hensbarrow Beacon","40",19290,"Un","313","1027","SW996575","SW 99682 57557","SW 9968 5750","307","6","ground at boundary stone 8m north of trig point","all visible china clay tips are higher (Abney level)","obvious summit","2017-02-04","Replaced by 19290 Hensbarrow Downs in Feb 2017","200","106","199679","57551","50.383635","-4.819167","E","",0,0,0,0,0,0,0,0,0,0,0,0,0,0,0,0,0,0,0,0,0,0,0,0,0,0,0,0,0,0,0,0,0,0,0,0,0,0,0,0,0,0,0,0,0,0,0,0,0,0,0,0,0,1,0,0
2885,"Christ Cross","40",,"Ma,2","261","856","SS964052","SS 96415 05229","SS995133","88","173","trig point on top of wall within hedge","trig point is difficult to find and radio mast compound permits access from only one side","","2012-07-31","","192","114S","296412","105223","50.837229","-3.472477","E","",0,1,0,1,0,1,0,0,0,0,0,0,0,0,0,0,0,0,0,0,0,0,1,0,0,0,0,0,0,0,0,0,0,0,0,0,0,0,0,0,0,0,0,0,0,0,0,0,0,0,0,0,0,0,0,0
2886,"Carnmenellis","40",,"Ma,2","252","827","SW695364","SW 69562 36448","SW789496","87","165","trig point","ground 180m SSE is lower","Abney level","2001-10-28","","203","103 104","169559","36441","50.183061","-5.229317","E","",0,1,0,1,0,1,0,0,0,0,0,0,0,0,0,0,0,0,0,0,0,0,1,0,0,0,0,0,0,0,0,0,0,0,0,0,0,0,0,0,0,0,0,0,0,0,0,0,0,0,0,0,0,0,0,0
2887,"Watch Croft [White Downs]","40",,"Ma,2","253","830","SW420356","SW 42047 35703","SW546337","27","226","rock tor 25m SW of trig point","trig point at SW 42065 35722 is 90cm lower","Abney level","2013-02-02","","203","102","142044","35696","50.165031","-5.613469","E","",0,1,0,1,0,1,0,0,0,0,0,0,0,0,0,0,0,0,0,0,0,0,1,0,0,0,0,0,0,0,0,0,0,0,0,0,0,0,0,0,0,0,0,0,0,0,0,0,0,0,0,0,0,0,0,0
2888,"Beacon Hill (Lundy)","40",,"Hu,1,SIB,sMa","143","469","SS132443","","Sea","","143","","","","2007-12-22","","180","139","213200","144300","51.167362","-4.673286","E","",0,0,0,1,0,1,0,0,0,0,0,0,0,0,0,0,0,0,0,0,0,0,0,1,0,0,0,0,0,0,0,0,0,0,1,1,0,0,0,0,0,0,0,0,0,0,0,0,0,0,0,0,0,0,0,0
3649,"Great Links Tor","40",2877,"Hu,5,Dew","589","1932","SX550867","SX 55084 86767","SX578857","477","112","rock tor by trig point","tor is about 3m higher than trig point","obvious summit","2007-12-22","","191","OL28N","255081","86761","50.662431","-4.051835","E","",0,0,0,1,0,1,0,1,0,0,0,0,0,0,0,0,0,1,0,0,0,0,0,0,0,0,0,0,0,0,0,0,0,0,0,0,0,0,0,0,0,0,0,0,0,0,0,0,0,0,0,0,0,0,0,0
3650,"Amicombe Hill [Kitty Tor]","40",2877,"5,Dew","584","1916","SX566872","SX 56692 87288","SX554877","548","36","rock tor by flagpole","higher than ground 200m SSE","Abney level","2011-11-20","","191","OL28N","256689","87282","50.667512","-4.029300","E","",0,0,0,0,0,1,0,1,0,0,0,0,0,0,0,0,0,1,0,0,0,0,0,0,0,0,0,0,0,0,0,0,0,0,0,0,0,0,0,0,0,0,0,0,0,0,0,0,0,0,0,0,0,0,0,0
3651,"Cosdon Hill [South Tawton Common]","40",2877,"5,Dew","550","1804","SX636915","SX 63619 91509","SX627886","468","82","rock: highest point of ancient cairn 10m N of trig point","enormous ancient cairn appears to cover natural summit. Both trig point (SX 63619 91498) and large modern cairn (SX 63663607 91501) sit on the ancient cairn","Abney level","2017-12-13","","191","OL28N 113","263616","91503","50.707114","-3.932897","E","",0,0,0,0,0,1,0,1,0,0,0,0,0,0,0,0,0,1,0,0,0,0,0,0,0,0,0,0,0,0,0,0,0,0,0,0,0,0,0,0,0,0,0,0,0,0,0,0,0,0,0,0,0,0,0,0
3652,"Great Mis Tor","40",2877,"5,Dew","538","1765","SX562769","SX 56267 76908","SX575776","457","81","rock by range warning flagpole on rock tor","rock 25m N on tor (SX 56269 76937) is 1m lower","Abney level","2007-03-10","","191","OL28N OL28S","256264","76902","50.574118","-4.031286","E","",0,0,0,0,0,1,0,1,0,0,0,0,0,0,0,0,0,1,0,0,0,0,0,0,0,0,0,0,0,0,0,0,0,0,0,0,0,0,0,0,0,0,0,0,0,0,0,0,0,0,0,0,0,0,0,0
3653,"Hameldown [Hamel Down]","40",2877,"5,Dew,sHu","532","1745","SX705799","SX 70570 79917","SX677814","435","97","rim of hollowed tumulus 8m from modern stone sign","trig point 700m NNW at SX 70313 80573 is about 2m lower","Abney level","2007-03-10","","191","OL28N","270567","79911","50.604511","-3.830453","E","",0,0,0,0,0,1,0,1,0,0,0,0,0,0,0,0,0,1,0,0,0,0,0,0,0,0,0,0,0,0,0,0,0,0,0,0,1,0,0,0,0,0,0,0,0,0,0,0,0,0,0,0,0,0,0,0
3654,"Steeperton Tor","40",2877,"5,Dew","532","1745","SX618887","SX 61851 88725","SX617882","501","31","top of rock tor","","Abney level","2012-07-31","","191","OL28N","261848","88719","50.681675","-3.956880","E","",0,0,0,0,0,1,0,1,0,0,0,0,0,0,0,0,0,1,0,0,0,0,0,0,0,0,0,0,0,0,0,0,0,0,0,0,0,0,0,0,0,0,0,0,0,0,0,0,0,0,0,0,0,0,0,0
3655,"Higher White Tor","40",2877,"5,Dew","527","1729","SX619785","SX 61970 78594","SX617796","478","49","cairn","","obvious summit","2012-07-31","","191","OL28N","261967","78588","50.590648","-3.951421","E","",0,0,0,0,0,1,0,1,0,0,0,0,0,0,0,0,0,1,0,0,0,0,0,0,0,0,0,0,0,0,0,0,0,0,0,0,0,0,0,0,0,0,0,0,0,0,0,0,0,0,0,0,0,0,0,0
3656,"North Hessary Tor","40",2877,"5,Dew","517","1696","SX578742","SX 57876 74223","SX575750","454","63","trig point on rock tor","","obvious summit","2007-03-10","","191","OL28N OL28S","257873","74217","50.550381","-4.007551","E","",0,0,0,0,0,1,0,1,0,0,0,0,0,0,0,0,0,1,0,0,0,0,0,0,0,0,0,0,0,0,0,0,0,0,0,0,0,0,0,0,0,0,0,0,0,0,0,0,0,0,0,0,0,0,0,0
3657,"Ryder's Hill","40",2877,"Hu,5,Dew","515","1690","SX659690","SX 65980 69069","SX603698","406","109","embedded rock 2m from trig point","","obvious summit","2007-03-10","","202","OL28S","265977","69063","50.505971","-3.891373","E","",0,0,0,1,0,1,0,1,0,0,0,0,0,0,0,0,0,1,0,0,0,0,0,0,0,0,0,0,0,0,0,0,0,0,0,0,0,0,0,0,0,0,0,0,0,0,0,0,0,0,0,0,0,0,0,0
3658,"Beardown Tors","40",2877,"5,Dew","513","1683","SX602773","SX 60288 77318","SX602779","481","32","SE top of W rock tor","this summit is 25cm higher than NW summit of this rock tor at SX60238 77357; all other features in summit area are lower","Abney level","2007-03-10","","191","OL28N","260285","77312","50.578779","-3.974689","E","",0,0,0,0,0,1,0,1,0,0,0,0,0,0,0,0,0,1,0,0,0,0,0,0,0,0,0,0,0,0,0,0,0,0,0,0,0,0,0,0,0,0,0,0,0,0,0,0,0,0,0,0,0,0,0,0
3659,"White Ridge","40",2877,"5,Dew","505.7","1659","SX648821","SX 64846 82153","SX640827","456","50","no feature","ground 25m NE is of very similar height; ground 235m E at SX 65075 82207 is lower (504m spot height on 1:50k map)","Abney level","2018-02-18","","191","OL28N","264843","82147","50.62331","-3.912111","E","",0,0,0,0,0,1,0,1,0,0,0,0,0,0,0,0,0,1,0,0,0,0,0,0,0,0,0,0,0,0,0,0,0,0,0,0,0,0,0,0,0,0,0,0,0,0,0,0,0,0,0,0,0,0,0,0
5400,"Rippon Tor","40",2877,"Hu,4","476","1562","SX746755","SX 74665 75582","SX739791","358","118","slab of rock 4m ENE of trig point","rock is 60cm higher than flush bracket of trig point","Abney level","2014-02-14","","191","OL28N OL28S","274662","75576","50.56644","-3.771151","E","",0,0,0,1,0,1,0,0,0,0,0,0,0,0,0,0,0,0,0,0,1,0,0,0,0,0,0,0,0,0,0,0,0,0,0,0,0,0,0,0,0,0,0,0,0,0,0,0,0,0,0,0,0,0,0,0
5401,"Easdon Tor","40",2877,"Hu,4","439","1440","SX729823","SX 72951 82316","SX729810","316","123","rock flake 2m E of trig point","rock is 8cm higher than flush bracket of trig point","Abney level","2009-06-08","","191","OL28N","272948","82310","50.626599","-3.797645","E","",0,0,0,1,0,1,0,0,0,0,0,0,0,0,0,0,0,0,0,0,1,0,0,0,0,0,0,0,0,0,0,0,0,0,0,0,0,0,0,0,0,0,0,0,0,0,0,0,0,0,0,0,0,0,0,0
5402,"Kilmar Tor","40",2881,"Hu,3","396","1299","SX252748","SX 25254 74887","SX216746","278","118","rock tor 50m SW of trig point","trig point is at SX 25297 74907","obvious summit","2009-06-08","","201","109","225251","74881","50.547502","-4.467931","E","",0,0,0,1,0,1,0,0,0,0,0,0,0,0,0,0,0,0,0,0,0,1,0,0,0,0,0,0,0,0,0,0,0,0,0,0,0,0,0,0,0,0,0,0,0,0,0,0,0,0,0,0,0,0,0,0
5403,"Brent Tor","40",2877,"Hu,3","334","1096","SX470803","SX 47071 80404","SX502829","204","130","grassy mound beside rear church door","","","2009-06-08","","191 201","112","247068","80398","50.603199","-4.162502","E","",0,0,0,1,0,1,0,0,0,0,0,0,0,0,0,0,0,0,0,0,0,1,0,0,0,0,0,0,0,0,0,0,0,0,0,0,0,0,0,0,0,0,0,0,0,0,0,0,0,0,0,0,0,0,0,0
5404,"Three Gates Hill","40",2889,"Hu,2","286","938","SS981191","SS 98121 19198","ST027229","163","123","ground 15m from S hedge in field behind mast","ground 50m E at SS 98171 19185 near water butt c.5m E of corner of 4 fields is just lower","Abney level","2009-06-08","","181","114N","298118","119192","50.963109","-3.452159","E","",0,0,0,1,0,1,0,0,0,0,0,0,0,0,0,0,0,0,0,0,0,0,1,0,0,0,0,0,0,0,0,0,0,0,0,0,0,0,0,0,0,0,0,0,0,0,0,0,0,0,0,0,0,0,0,0
5405,"Fursdon Hill","40",2889,"Hu,2","254","833","SS924049","SS 92410 05005","SS890070","142","112","no feature: ground in small fenced copse","","Abney level","2009-06-08","","192","114S","292407","104999","50.834484","-3.529268","E","",0,0,0,1,0,1,0,0,0,0,0,0,0,0,0,0,0,0,0,0,0,0,1,0,0,0,0,0,0,0,0,0,0,0,0,0,0,0,0,0,0,0,0,0,0,0,0,0,0,0,0,0,0,0,0,0
5406,"Colleywell Hill","40",2877,"Hu,2","253","830","SX921809","","SX823933","123","130","","","","2010-05-06","Twinned with 8031 Great Haldon. Alternative summit at SX923808","192","OL44 110","292100","80900","50.617784","-3.526572","E","",0,0,0,1,0,1,0,0,0,0,0,0,0,0,0,0,0,0,0,0,0,0,1,0,0,0,0,0,0,0,0,0,0,0,0,0,0,0,0,0,0,0,0,0,0,0,0,0,0,0,0,0,0,0,0,0
5407,"Waddles Down","40",2877,"Hu,2","248","814","SX865946","SX 86547 94700","SX844930","135","113","ground 15m W of trig point behind BT mast compound","trig point (SX 86562 94701) is 0.5m lower","Abney level","2009-11-20","alternative summit 1.5km west at SX851947","191","114S","286544","94694","50.74073","-3.60931","E","",0,0,0,1,0,1,0,0,0,0,0,0,0,0,0,0,0,0,0,0,0,0,1,0,0,0,0,0,0,0,0,0,0,0,0,0,0,0,0,0,0,0,0,0,0,0,0,0,0,0,0,0,0,0,0,0
5408,"Bingwell Hill","40",2885,"Hu,2","237","778","SS967110","SS 96728 11020","SS979083","127","110","no feature: ground in field behind mast","summit is 55m S of trig point (SS 96746 11079)","Abney level","2012-07-31","","192","114N","296726","111014","50.889344","-3.469669","E","",0,0,0,1,0,1,0,0,0,0,0,0,0,0,0,0,0,0,0,0,0,0,1,0,0,0,0,0,0,0,0,0,0,0,0,0,0,0,0,0,0,0,0,0,0,0,0,0,0,0,0,0,0,0,0,0
5409,"Bulverton Hill","40",2892,"Hu,2","212","696","SY106893","SY 10638 89353","SY107900","97","115","no feature","flat summit area","","2010-05-06","","192","115","310636","89347","50.696868","-3.266682","E","",0,0,0,1,0,1,0,0,0,0,0,0,0,0,0,0,0,0,0,0,0,0,1,0,0,0,0,0,0,0,0,0,0,0,0,0,0,0,0,0,0,0,0,0,0,0,0,0,0,0,0,0,0,0,0,0
5410,"Bin Down","40",2881,"Hu,2","203","666","SX276578","SX 27648 57837","SX272615","102","101","tall man made mound","adjacent mound 8m away at SX 27642 57832 is as high; ground 50m WSW may also be as high as base of mounds","","2009-06-08","","201","107","227645","57831","50.395016","-4.426314","E","",0,0,0,1,0,1,0,0,0,0,0,0,0,0,0,0,0,0,0,0,0,0,1,0,0,0,0,0,0,0,0,0,0,0,0,0,0,0,0,0,0,0,0,0,0,0,0,0,0,0,0,0,0,0,0,0
5411,"Beacon Hill","40",2877,"Hu,1,CoU","196","643","SX857620","SX 85793 62032","SX803687","73","123","no feature","ground c 10m W of trig point at SX 85805 62034 (trig point in mast compound on top of covered reservoir)","","2009-06-08","","202","OL20E OL44 110","285790","62026","50.446914","-3.609941","E","",0,0,0,1,0,1,0,0,0,0,0,0,0,0,0,0,0,0,0,0,0,0,0,1,0,0,0,0,0,0,0,0,1,0,0,0,0,0,0,0,0,0,0,0,0,0,0,0,0,0,0,0,0,0,0,0
5412,"Tregonning Hill","40",2886,"Hu,1","194","636","SW599300","SW 59926 30048","SW616302","92","102","trig point","rock c 8m N of war memorial at SW 59906 30070 is as high; ground on ramparts 10m SE of trig point at SW 59934 30040 is highest point but not natural ground","Abney level","2010-03-28","","203","102","159923","30041","50.121773","-5.360022","E","",0,0,0,1,0,1,0,0,0,0,0,0,0,0,0,0,0,0,0,0,0,0,0,1,0,0,0,0,0,0,0,0,0,0,0,0,0,0,0,0,0,0,0,0,0,0,0,0,0,0,0,0,0,0,0,0
5413,"Woodbury Common","40",2892,"Hu,1","183","600","SY032874","SY 03230 87483","SY064991","81","102","no feature: ground on earthworks","tumulus 400m N at SY 03256 87866 is several metres lower","Abney level","2009-06-08","","192","115","303227","87477","50.678870","-3.371053","E","",0,0,0,1,0,1,0,0,0,0,0,0,0,0,0,0,0,0,0,0,0,0,0,1,0,0,0,0,0,0,0,0,0,0,0,0,0,0,0,0,0,0,0,0,0,0,0,0,0,0,0,0,0,0,0,0
5414,"Great Hill","40",2877,"Hu,1","180","591","SX912679","","SX900660","52","128","","","","2009-11-20","","202","OL44 110","291200","67900","50.500749","-3.535486","E","",0,0,0,1,0,1,0,0,0,0,0,0,0,0,0,0,0,0,0,0,0,0,0,1,0,0,0,0,0,0,0,0,0,0,0,0,0,0,0,0,0,0,0,0,0,0,0,0,0,0,0,0,0,0,0,0
5415,"Slappers Hill","40",2877,"Hu,1","179","587","SX894531","SX 89472 53192","SX895563","57","122","trig point","","","2012-07-31","","202","OL20E","289469","53186","50.368147","-3.55554","E","",0,0,0,1,0,1,0,0,0,0,0,0,0,0,0,0,0,0,0,0,0,0,0,1,0,0,0,0,0,0,0,0,0,0,0,0,0,0,0,0,0,0,0,0,0,0,0,0,0,0,0,0,0,0,0,0
5416,"White Down","40",2892,"Hu,1","167","548","ST007015","ST 00745 01576","ST031028","51","116","no feature","note that trees hamper GPS measurement","","2010-03-28","","192","115","300742","101570","50.805148","-3.410014","E","",0,0,0,1,0,1,0,0,0,0,0,0,0,0,0,0,0,0,0,0,0,0,0,1,0,0,0,0,0,0,0,0,0,0,0,0,0,0,0,0,0,0,0,0,0,0,0,0,0,0,0,0,0,0,0,0
5417,"Stoke Hill","40",2892,"Hu,1","161","528","SX937953","SX 93790 95366","SX964995","36","125","no feature: ground by covered reservoir","","","2012-07-31","","192","114S","293787","95360","50.748088","-3.506889","E","",0,0,0,1,0,1,0,0,0,0,0,0,0,0,0,0,0,0,0,0,0,0,0,1,0,0,0,0,0,0,0,0,0,0,0,0,0,0,0,0,0,0,0,0,0,0,0,0,0,0,0,0,0,0,0,0
5507,"Higher Newford","40",,"0,CoU,SIB","51","167","SV912120","SV 91228 12060","Sea","","51","no feature: 3m from wall on W side of road","","","2009-06-08","","203","101","91225","12052","49.928706","-6.304082","E","",0,0,0,0,0,1,0,0,0,0,0,0,0,0,0,0,0,0,0,0,0,0,0,0,1,0,0,0,0,0,0,0,1,0,1,0,0,0,0,0,0,0,0,0,0,0,0,0,0,0,0,0,0,0,0,0
5529,"Woolwell Road","40",2877,"CoU","162","531","SX504615","SX 50472 61583","SX504615","162","0","middle of roundabout between Tescos and the council offices","","","2010-09-07","","201","OL20W OL28S","250469","61577","50.434936","-4.106929","E","",0,0,0,0,0,0,0,0,0,0,0,0,0,0,0,0,0,0,0,0,0,0,0,0,0,0,0,0,0,0,0,0,1,0,0,0,0,0,0,0,0,0,0,0,0,0,0,0,0,0,0,0,0,0,0,0
5615,"Hound Tor","40",2877,"O","414","1358","SX742789","SX 74254 78963","SX 7416 7859","386.2","28","central rocky outcrop","","obvious summit","2018-07-22","On Trail 100 list","191","OL28N","274251","78957","50.596742","-3.778095","E","",0,0,0,0,0,0,0,0,0,0,0,0,0,0,0,0,0,0,0,0,0,0,0,0,0,0,0,0,0,0,0,0,0,0,0,0,0,0,0,0,0,0,0,0,0,0,1,0,0,0,0,0,1,0,0,0
7774,"Black Hill","40",2877,"s5","584","1916","SX604846","SX 60409 84616","SX608857","561","23","small cairn","flat summit area","","2011-11-27","","191","OL28N","260406","84610","50.644400","-3.975727","E","",0,0,0,0,0,0,0,0,0,0,0,0,0,0,0,0,0,0,0,0,0,0,0,0,0,0,0,0,0,0,0,0,0,0,0,0,0,0,1,0,0,0,0,0,0,0,0,0,0,0,0,0,0,0,0,0
7775,"Brown's House Top","40",2877,"s5","539","1768","SX614804","SX 61420 80425","SX612810","512","27","no feature: grass","very flat summit area","","2011-11-27","","191","OL28N","261417","80419","50.606974","-3.959870","E","",0,0,0,0,0,0,0,0,0,0,0,0,0,0,0,0,0,0,0,0,0,0,0,0,0,0,0,0,0,0,0,0,0,0,0,0,0,0,1,0,0,0,0,0,0,0,0,0,0,0,0,0,0,0,0,0
7776,"Sittaford Tor","40",2877,"s5","538","1765","SX633830","SX 63325 83045","SX626821","516","22","no feature: grassy mound","","obvious summit","2011-11-27","","191","OL28N","263322","83039","50.630972","-3.933930","E","",0,0,0,0,0,0,0,0,0,0,0,0,0,0,0,0,0,0,0,0,0,0,0,0,0,0,0,0,0,0,0,0,0,0,0,0,0,0,1,0,0,0,0,0,0,0,0,0,0,0,0,0,0,0,0,0
7777,"Hare Tor","40",2877,"s5","531","1742","SX550842","SX 55078 84237","SX552844","505","26","ground by concreted iron ring ca 2m from MOD range warning flagpole","","obvious summit","2011-11-27","","191","OL28N","255075","84231","50.639692","-4.050929","E","",0,0,0,0,0,0,0,0,0,0,0,0,0,0,0,0,0,0,0,0,0,0,0,0,0,0,0,0,0,0,0,0,0,0,0,0,0,0,1,0,0,0,0,0,0,0,0,0,0,0,0,0,0,0,0,0
7778,"East Mill Tor","40",2877,"s5","513","1683","SX599898","SX 59935 89889","SX598894","487","26","flat rock slab","ground 12m SE at SX 59941 89879 may be as high","","2011-11-27","","191","OL28N","259932","89883","50.691678","-3.984425","E","",0,0,0,0,0,0,0,0,0,0,0,0,0,0,0,0,0,0,0,0,0,0,0,0,0,0,0,0,0,0,0,0,0,0,0,0,0,0,1,0,0,0,0,0,0,0,0,0,0,0,0,0,0,0,0,0
7779,"Assycombe Hill","40",2877,"4","498.6","1636","SX664820","SX 66448 82026","SX 6557 8154","439.7","58.9","knoll a few metres N of marker stone","","","2018-07-22","","191","OL28N","266445","82020","50.622538","-3.88943","E","",0,0,0,0,0,1,0,0,0,0,0,0,0,0,0,0,0,0,0,0,1,0,0,0,0,0,0,0,0,0,0,0,0,0,0,0,0,0,0,0,0,0,0,0,0,0,0,0,0,0,0,0,0,0,0,0
7780,"Hookney Tor","40",2877,"s4","497","1631","SX699813","SX 69906 81317","SX704811","473","24","rock slab","tor at SX 69865 81292 is 15cm lower; summit may be a tumulus which if correct then the tor would be the natural summit","Abney level","2018-07-22","","191","OL28N","269903","81311","50.616947","-3.840322","E","",0,0,0,0,0,0,0,0,0,0,0,0,0,0,0,0,0,0,0,0,0,0,0,0,0,0,0,0,0,0,0,0,0,0,0,0,0,0,0,1,0,0,0,0,0,0,0,0,0,0,0,0,0,0,0,0
7781,"Hound Tor","40",2877,"s4","495","1624","SX628890","SX 62883 89021","SX632895","475","20","grassy outcrop","","","2011-11-27","","191","OL28N","262880","89015","50.684579","-3.942391","E","",0,0,0,0,0,0,0,0,0,0,0,0,0,0,0,0,0,0,0,0,0,0,0,0,0,0,0,0,0,0,0,0,0,0,0,0,0,0,0,1,0,0,0,0,0,0,0,0,0,0,0,0,0,0,0,0
7782,"Penn Moor","40",2877,"4","493","1617","SX602645","SX 60295 64594","SX618667","452","41","no feature: ground c 100m NNE of trig point","","Abney level","2011-11-27","","202","OL20W OL28S","260292","64588","50.46442","-3.969822","E","",0,0,0,0,0,1,0,0,0,0,0,0,0,0,0,0,0,0,0,0,1,0,0,0,0,0,0,0,0,0,0,0,0,0,0,0,0,0,0,0,0,0,0,0,0,0,0,0,0,0,0,0,0,0,0,0
7783,"Corndon Tor [Corndon Down]","40",2877,"4,sHu","434","1424","SX685741","SX 68598 74155","SX681763","338","96","rock tor","","obvious summit","2012-07-31","","191","OL28N OL28S","268595","74149","50.552279","-3.856268","E","",0,0,0,0,0,1,0,0,0,0,0,0,0,0,0,0,0,0,0,0,1,0,0,0,0,0,0,0,0,0,0,0,0,0,0,0,1,0,0,0,0,0,0,0,0,0,0,0,0,0,0,0,0,0,0,0
7784,"Meldon Hill","40",2877,"3","390","1280","SX696861","SX 69638 86146","SX 6877 8530","300.8","89","tor","","","2018-07-22","","191","OL28N","269635","86140","50.660292","-3.845808","E","",1,0,0,0,0,1,0,0,0,0,0,0,0,0,0,0,0,0,0,0,0,1,0,0,0,0,0,0,0,0,0,0,0,0,0,0,0,0,0,0,0,0,0,0,0,0,0,0,0,0,0,0,0,0,0,0
7785,"Hendra Downs [The Beacon]","40",2881,"3,sHu","369","1211","SX196792","SX 19655 79280","SX179807","278","91","rock","rock 15m WNW at SX 19641 79286 is slightly lower","Abney level","2011-11-27","","201","109","219652","79274","50.585269","-4.549009","E","",0,0,0,0,0,1,0,0,0,0,0,0,0,0,0,0,0,0,0,0,0,1,0,0,0,0,0,0,0,0,0,0,0,0,0,0,1,0,0,0,0,0,0,0,0,0,0,0,0,0,0,0,0,0,0,0
7786,"Holdstone Hill [Holdstone Down]","40",2889,"3,sHu","349","1145","SS619477","SS 61970 47706","SS618467","259","90","no feature: ground by path","summit is 20m E of trig point and huge pile of stones","Abney level","2011-11-27","","180","OL9W","261967","147700","51.211777","-3.977568","E","",0,0,0,0,0,1,0,0,0,0,0,0,0,0,0,0,0,0,0,0,0,1,0,0,0,0,0,0,0,0,0,0,0,0,0,0,1,0,0,0,0,0,0,0,0,0,0,0,0,0,0,0,0,0,0,0
7787,"Hunter's Tor","40",2877,"3,sHu","326","1070","SX761823","","SX759829","231","95","","","","2011-11-27","","191","OL28N","276100","82300","50.627188","-3.753102","E","",0,0,0,0,0,1,0,0,0,0,0,0,0,0,0,0,0,0,0,0,0,1,0,0,0,0,0,0,0,0,0,0,0,0,0,0,1,0,0,0,0,0,0,0,0,0,0,0,0,0,0,0,0,0,0,0
7788,"Hollerday Hill","40",2889,"2,sHu","244","801","SS714497","SS 71431 49799","SS715493","147","97","no feature: grass 2m E of OS benchmark & 15m N of cairn","","","2011-11-27","","180","OL9W","271428","149793","51.232798","-3.842944","E","",0,0,0,0,0,1,0,0,0,0,0,0,0,0,0,0,0,0,0,0,0,0,1,0,0,0,0,0,0,0,0,0,0,0,0,0,1,0,0,0,0,0,0,0,0,0,0,0,0,0,0,0,0,0,0,0
7789,"Horner Hill","40",2892,"2,sHu","222","728","ST250020","","ST234051","124","98","","","","2011-11-27","","192 193","116","325000","102000","50.812665","-3.065914","E","",0,0,0,0,0,1,0,0,0,0,0,0,0,0,0,0,0,0,0,0,0,0,1,0,0,0,0,0,0,0,0,0,0,0,0,0,1,0,0,0,0,0,0,0,0,0,0,0,0,0,0,0,0,0,0,0
7790,"St Breock Beacon","40",19290,"2,sHu","216","709","SW967682","SW 96760 68218","SW942654","121","95","trig point","","","2011-11-27","","200","106","196757","68212","50.478390","-4.865995","E","",0,0,0,0,0,1,0,0,0,0,0,0,0,0,0,0,0,0,0,0,0,0,1,0,0,0,0,0,0,0,0,0,0,0,0,0,1,0,0,0,0,0,0,0,0,0,0,0,0,0,0,0,0,0,0,0
7791,"Stanborough Hill","40",2877,"2,sHu","215","705","SX776517","","SX733588","118","97","","","","2011-11-27","","202","OL20E","277600","51700","50.352437","-3.721879","E","",0,0,0,0,0,1,0,0,0,0,0,0,0,0,0,0,0,0,0,0,0,0,1,0,0,0,0,0,0,0,0,0,0,0,0,0,1,0,0,0,0,0,0,0,0,0,0,0,0,0,0,0,0,0,0,0
7792,"Telegraph Hill","40",2877,"1,sHu","195","640","SX807730","","SX799728","105","90","","","","2011-11-27","","191","OL44 110","280700","73000","50.544549","-3.685108","E","",0,0,0,0,0,1,0,0,0,0,0,0,0,0,0,0,0,0,0,0,0,0,0,1,0,0,0,0,0,0,0,0,0,0,0,0,1,0,0,0,0,0,0,0,0,0,0,0,0,0,0,0,0,0,0,0
7794,"Five Barrows Hill","40",2889,"4","493","1617","SS732368","SS 73244 36811","SS719406","412","81","ground 2m N of trig point on tumulus","tumulus appears to cover natural summit","","2014-02-14","","180","OL9W","273241","136805","51.116473","-3.812407","E","",0,0,0,0,0,1,0,0,0,0,0,0,0,0,0,0,0,0,0,0,1,0,0,0,0,0,0,0,0,0,0,0,0,0,0,0,0,0,0,0,0,0,0,0,0,0,0,0,0,0,0,0,0,0,0,0
7799,"The Mount","40",2889,"2,sHu","239","784","SS941232","SS 94157 23234","SS 9468 2469","144.7","94.3","no feature","trig point 80m E in hedge at SS 94235 23233 is 0.9m lower; ground 25m W of trig point at SS 94211 23229 is 0.3m lower","","2018-03-17","","181","114N","294155","123228","50.998675","-3.509762","E","",0,0,0,0,0,1,0,0,0,0,0,0,0,0,0,0,0,0,0,0,0,0,1,0,0,0,0,0,0,0,0,0,0,0,0,0,1,0,0,0,0,0,0,0,0,0,0,0,0,0,0,0,0,0,0,0
7800,"Hukeley Knap","40",2889,"2,sHu","228","748","SS966236","SS 96699 23663","SS963244","132","96","no feature: ground c 15m from mast","","","2011-11-27","","181","114N","296697","123657","51.002994","-3.473671","E","",0,0,0,0,0,1,0,0,0,0,0,0,0,0,0,0,0,0,0,0,0,0,1,0,0,0,0,0,0,0,0,0,0,0,0,0,1,0,0,0,0,0,0,0,0,0,0,0,0,0,0,0,0,0,0,0
7829,"Doddiscombsleigh Hill","40",2877,"1,sHu","194","636","SX850860","SX 85051 86071","SX858866","103","91","no feature: pasture","flat summit area","","2012-02-04","","191","OL44 110","285048","86065","50.662867","-3.627814","E","",0,0,0,0,0,1,0,0,0,0,0,0,0,0,0,0,0,0,0,0,0,0,0,1,0,0,0,0,0,0,0,0,0,0,0,0,1,0,0,0,0,0,0,0,0,0,0,0,0,0,0,0,0,0,0,0
8031,"Great Haldon","40",2877,"Hu=,2","253","830","SX876855","SX 87697 85602","SX913821","223","30","wide 2ft mound on NE side of road","","","2017-03-07","Twinned with the Hump 5406 Colleywell Hill","192","OL44 110","287694","85596","50.659168","-3.590249","E","",0,0,0,0,1,1,0,0,0,0,0,0,0,0,0,0,0,0,0,0,0,0,1,0,0,0,0,0,0,0,0,0,0,0,0,0,0,0,0,0,0,0,0,0,0,0,0,0,0,0,0,0,0,0,0,0
17487,"Birch Tor","40",2877,"4","487","1598","SX686816","SX 68670 81635","SX693816","452","35","tumulus","","Abney level","2014-03-21","","191","OL28N","268667","81629","50.619528","-3.857896","E","",1,0,0,0,0,1,0,0,0,0,0,0,0,0,0,0,0,0,0,0,1,0,0,0,0,0,0,0,0,0,0,0,0,0,0,0,0,0,0,0,0,0,0,0,0,0,0,0,0,0,0,0,0,0,0,0
17488,"Quickbeam Hill","40",2877,"4","481","1578","SX653654","","SX469664","446","35","","","","2014-11-11","","202","OL20W OL28S","265300","65400","50.472891","-3.899598","E","",1,0,0,0,0,1,0,0,0,0,0,0,0,0,0,0,0,0,0,0,1,0,0,0,0,0,0,0,0,0,0,0,0,0,0,0,0,0,0,0,0,0,0,0,0,0,0,0,0,0,0,0,0,0,0,0
17489,"Belstone Tor","40",2877,"4","479","1572","SX614920","SX 61438 92033","SX611914","432","47","rock tower on extensive tor","four other towers in vicinity may be as high","","2014-03-21","","191","OL28N 113","261435","92027","50.711308","-3.963964","E","",1,0,0,0,0,1,0,0,0,0,0,0,0,0,0,0,0,0,0,0,1,0,0,0,0,0,0,0,0,0,0,0,0,0,0,0,0,0,0,0,0,0,0,0,0,0,0,0,0,0,0,0,0,0,0,0
17490,"White Tor","40",2877,"4","468","1535","SX542786","SX 54290 78674","SX549788","438","30","outcrop","","Abney level","2014-02-14","","191 201","OL28N","254287","78668","50.5895","-4.05988","E","",1,0,0,0,0,1,0,0,0,0,0,0,0,0,0,0,0,0,0,0,1,0,0,0,0,0,0,0,0,0,0,0,0,0,0,0,0,0,0,0,0,0,0,0,0,0,0,0,0,0,0,0,0,0,0,0
17491,"Ugborough Moor","40",2877,"4","464","1522","SX653625","SX 65317 62604","SX651632","426","38","huge pile of stones","trig point is 25m SSE at SX 65327 62581 and is probably lower","","2015-02-14","","202","OL20W OL28S","265314","62598","50.447709","-3.898388","E","",1,0,0,0,0,1,0,0,0,0,0,0,0,0,0,0,0,0,0,0,1,0,0,0,0,0,0,0,0,0,0,0,0,0,0,0,0,0,0,0,0,0,0,0,0,0,0,0,0,0,0,0,0,0,0,0
17492,"Challacombe Down","40",2877,"4","463","1519","SX689804","SX 68995 80428","SX689809","425","38","no feature: ground by wall","","Abney level","2018-07-22","","191","OL28N","268992","80422","50.608753","-3.852878","E","",1,0,0,0,0,1,0,0,0,0,0,0,0,0,0,0,0,0,0,0,1,0,0,0,0,0,0,0,0,0,0,0,0,0,0,0,0,0,0,0,0,0,0,0,0,0,0,0,0,0,0,0,0,0,0,0
17493,"Chinkwell Tor","40",2877,"4","460","1509","SX729782","SX 72940 78227","SX735772","382","78","cairn","","","2014-02-14","","191","OL28N","272937","78221","50.589842","-3.7964","E","",1,0,0,0,0,1,0,0,0,0,0,0,0,0,0,0,0,0,0,0,1,0,0,0,0,0,0,0,0,0,0,0,0,0,0,0,0,0,0,0,0,0,0,0,0,0,0,0,0,0,0,0,0,0,0,0
17494,"Haytor Rocks","40",2877,"4","457","1499","SX757770","SX 75718 77048","SX747761","388","69","rock tor","","","2014-03-24","","191","OL28N","275715","77042","50.579843","-3.756779","E","",1,0,0,0,0,1,0,0,0,0,0,0,0,0,0,0,0,0,0,0,1,0,0,0,0,0,0,0,0,0,0,0,0,0,0,0,0,0,0,0,0,0,0,0,0,0,0,0,0,0,0,0,0,0,0,0
17495,"Great Staple Tor","40",2877,"4","455","1493","SX542760","SX 54203 76032","SX547772","418","37","tall narrow tower of rock","","obvious summit","2014-03-24","","191 201","OL28N OL28S","254200","76026","50.565734","-4.060072","E","",1,0,0,0,0,1,0,0,0,0,0,0,0,0,0,0,0,0,0,0,1,0,0,0,0,0,0,0,0,0,0,0,0,0,0,0,0,0,0,0,0,0,0,0,0,0,0,0,0,0,0,0,0,0,0,0
17496,"Roos Tor","40",2877,"4","454","1489","SX543766","SX 54339 76606","SX542763","424","30","rock tor (logan stone)","","obvious summit","2017-04-30","","191 201","OL28N OL28S","254336","76600","50.570926","-4.058378","E","",1,0,0,0,0,1,0,0,0,0,0,0,0,0,0,0,0,0,0,0,1,0,0,0,0,0,0,0,0,0,0,0,0,0,0,0,0,0,0,0,0,0,0,0,0,0,0,0,0,0,0,0,0,0,0,0
17497,"South Hessary Tor","40",2877,"4","454","1490","SX597723","","SX587734","419","35","","","","2013-10-23","","191","OL28S","259700","72300","50.533592","-3.981060","E","",1,0,0,0,0,1,0,0,0,0,0,0,0,0,0,0,0,0,0,0,1,0,0,0,0,0,0,0,0,0,0,0,0,0,0,0,0,0,0,0,0,0,0,0,0,0,0,0,0,0,0,0,0,0,0,0
17498,"Bellever Tor","40",2877,"4","443","1453","SX644764","SX 64471 76444","SX635776","372","71","rock 3m E of trig point","trig point and rock are on a tor; tor to W is c 50cm lower than rock and about level with trig point base","Abney level","2012-01-20","","191","OL28N OL28S","264468","76438","50.57191","-3.915325","E","",1,0,0,0,0,1,0,0,0,0,0,0,0,0,0,0,0,0,0,0,1,0,0,0,0,0,0,0,0,0,0,0,0,0,0,0,0,0,0,0,0,0,0,0,0,0,0,0,0,0,0,0,0,0,0,0
17499,"Cox Tor","40",2877,"4","442","1450","SX530761","SX 53055 76188","SX536762","393","49","outcrop 15m W of trig point","","obvious summit","2014-03-19","","191 201","OL28N OL28S","253052","76182","50.566848","-4.076332","E","",1,0,0,0,0,1,0,0,0,0,0,0,0,0,0,0,0,0,0,0,1,0,0,0,0,0,0,0,0,0,0,0,0,0,0,0,0,0,0,0,0,0,0,0,0,0,0,0,0,0,0,0,0,0,0,0
17500,"Top Tor","40",2877,"4","432","1417","SX736762","SX 73617 76250","SX741760","394","38","rock tor","","","2015-02-08","","191","OL28N OL28S","273614","76244","50.572218","-3.786168","E","",1,0,0,0,0,1,0,0,0,0,0,0,0,0,0,0,0,0,0,0,1,0,0,0,0,0,0,0,0,0,0,0,0,0,0,0,0,0,0,0,0,0,0,0,0,0,0,0,0,0,0,0,0,0,0,0
17501,"Laughter Tor","40",2877,"4","421","1381","SX653756","SX 65317 75705","SX646758","377","44","rock tor","tor to N is 20cm lower and tor to W is 100cm lower","Abney level","2014-03-24","","191","OL28N OL28S","265314","75699","50.565464","-3.903117","E","",1,0,0,0,0,1,0,0,0,0,0,0,0,0,0,0,0,0,0,0,1,0,0,0,0,0,0,0,0,0,0,0,0,0,0,0,0,0,0,0,0,0,0,0,0,0,0,0,0,0,0,0,0,0,0,0
17502,"Stalldown Barrow","40",2877,"4","415","1362","SX636622","","SX629634","356","59","","","","2015-02-09","","202","OL20W OL28S","263600","62200","50.443735","-3.922375","E","",1,0,0,0,0,1,0,0,0,0,0,0,0,0,0,0,0,0,0,0,1,0,0,0,0,0,0,0,0,0,0,0,0,0,0,0,0,0,0,0,0,0,0,0,0,0,0,0,0,0,0,0,0,0,0,0
17503,"Heatree Down","40",2877,"4","414","1358","SX724802","SX 72435 80257","SX721801","379","35","grassed over large flattened cairn","","","2014-03-24","","191","OL28N","272432","80251","50.607979","-3.804228","E","",1,0,0,0,0,1,0,0,0,0,0,0,0,0,0,0,0,0,0,0,1,0,0,0,0,0,0,0,0,0,0,0,0,0,0,0,0,0,0,0,0,0,0,0,0,0,0,0,0,0,0,0,0,0,0,0
17504,"Black Hill","40",2877,"4","412","1352","SX760786","","SX758778","381","31","","","","2014-08-07","","191","OL28N","276000","78600","50.593908","-3.753279","E","",1,0,0,0,0,1,0,0,0,0,0,0,0,0,0,0,0,0,0,0,1,0,0,0,0,0,0,0,0,0,0,0,0,0,0,0,0,0,0,0,0,0,0,0,0,0,0,0,0,0,0,0,0,0,0,0
17505,"Sharpitor","40",2877,"4","412","1352","SX559703","SX 55957 70342","SX560709","346","66","rock","","obvious summit","2018-07-22","","202","OL28S","255954","70336","50.51503","-4.033121","E","",1,0,0,0,0,1,0,0,0,0,0,0,0,0,0,0,0,0,0,0,1,0,0,0,0,0,0,0,0,0,0,0,0,0,0,0,0,0,0,0,0,0,0,0,0,0,0,0,0,0,0,0,0,0,0,0
17506,"Rough Tor","40",2881,"4","400","1312","SX145807","SX 14541 80797","SX154823","313","87","rock tor","rock outcrop NE of the memorial plaque at SX 14574 80811 is slightly lower","Abney level","2018-09-17","","200","109","214538","80791","50.597295","-4.621929","E","",1,0,0,0,0,1,0,0,0,0,0,0,0,0,0,0,0,0,0,0,1,0,0,0,0,0,0,0,0,0,0,0,0,0,0,0,0,0,0,0,0,0,0,0,0,0,0,0,0,0,0,0,0,0,0,0
17507,"Hayne Down","40",2877,"3","397","1302","SX744801","SX 74432 80144","SX738800","354","43","rock tor","slightly higher than rock tower","Abney level","2012-01-20","","191","OL28N","274429","80138","50.607396","-3.775981","E","",1,0,0,0,0,1,0,0,0,0,0,0,0,0,0,0,0,0,0,0,0,1,0,0,0,0,0,0,0,0,0,0,0,0,0,0,0,0,0,0,0,0,0,0,0,0,0,0,0,0,0,0,0,0,0,0
17508,"Leeden Tor","40",2877,"3","389","1276","SX562717","","SX567719","349","40","","","","2015-03-27","","202","OL28S","256200","71700","50.527349","-4.030183","E","",1,0,0,0,0,1,0,0,0,0,0,0,0,0,0,0,0,0,0,0,0,1,0,0,0,0,0,0,0,0,0,0,0,0,0,0,0,0,0,0,0,0,0,0,0,0,0,0,0,0,0,0,0,0,0,0
17509,"Stowe's Hill","40",2881,"3","381","1250","SX257724","SX 25778 72485","SX255731","303","78","rock tor","","","2012-01-20","","201","109","225775","72479","50.526077","-4.459419","E","",1,0,0,0,0,1,0,0,0,0,0,0,0,0,0,0,0,0,0,0,0,1,0,0,0,0,0,0,0,0,0,0,0,0,0,0,0,0,0,0,0,0,0,0,0,0,0,0,0,0,0,0,0,0,0,0
17510,"Riddon Ridge","40",2877,"3","380","1247","SX666763","","SX667782","338","42","","","","2012-01-20","","191","OL28N OL28S","266600","76300","50.571161","-3.885188","E","",1,0,0,0,0,1,0,0,0,0,0,0,0,0,0,0,0,0,0,0,0,1,0,0,0,0,0,0,0,0,0,0,0,0,0,0,0,0,0,0,0,0,0,0,0,0,0,0,0,0,0,0,0,0,0,0
17511,"Sharp Tor","40",2877,"3","380","1247","SX686729","SX 68656 72960","SX685733","347","33","rock outcrop","","obvious summit","2012-01-20","","191","OL28S","268653","72954","50.541551","-3.855028","E","",1,0,0,0,0,1,0,0,0,0,0,0,0,0,0,0,0,0,0,0,0,1,0,0,0,0,0,0,0,0,0,0,0,0,0,0,0,0,0,0,0,0,0,0,0,0,0,0,0,0,0,0,0,0,0,0
17512,"Langstone Downs","40",2881,"3","379","1243","SX255737","SX 25545 73802","SX254745","346","33","large ancient cairn","","Abney level","2014-06-22","","201","109","225542","73796","50.537841","-4.463319","E","",1,0,0,0,0,1,0,0,0,0,0,0,0,0,0,0,0,0,0,0,0,1,0,0,0,0,0,0,0,0,0,0,0,0,0,0,0,0,0,0,0,0,0,0,0,0,0,0,0,0,0,0,0,0,0,0
17513,"Ugborough Beacon","40",2877,"3","378","1240","SX667591","SX 66752 59114","SX661595","344","34","rock tor","Beacon Rocks 90m ENE at SX 66837 59152 are of similar height","Abney level","2012-01-20","","202","OL20W OL28S","266749","59108","50.416667","-3.876947","E","",1,0,0,0,0,1,0,0,0,0,0,0,0,0,0,0,0,0,0,0,0,1,0,0,0,0,0,0,0,0,0,0,0,0,0,0,0,0,0,0,0,0,0,0,0,0,0,0,0,0,0,0,0,0,0,0
17514,"Caradon Hill","40",2881,"3","371","1217","SX272707","SX 27277 70793","SX262710","302","69","tumulus","","","2012-01-20","","201","109","227274","70787","50.511319","-4.437507","E","",1,0,0,0,0,1,0,0,0,0,0,0,0,0,0,0,0,0,0,0,0,1,0,0,0,0,0,0,0,0,0,0,0,0,0,0,0,0,0,0,0,0,0,0,0,0,0,0,0,0,0,0,0,0,0,0
17515,"Sheeps Tor","40",2877,"3","369","1211","SX565682","SX 56570 68215","SX576680","297","72","rock","","obvious summit","2015-02-09","","202","OL28S","256567","68209","50.496064","-4.023663","E","",1,0,0,0,0,1,0,0,0,0,0,0,0,0,0,0,0,0,0,0,0,1,0,0,0,0,0,0,0,0,0,0,0,0,0,0,0,0,0,0,0,0,0,0,0,0,0,0,0,0,0,0,0,0,0,0
17516,"Blackingstone Rock","40",2877,"3","355","1165","SX786855","SX 78646 85593","SX773860","301","54","rock tor","","obvious summit","2012-01-20","","191","OL28N OL44 110","278643","85587","50.65727","-3.718241","E","",1,0,0,0,0,1,0,0,0,0,0,0,0,0,0,0,0,0,0,0,0,1,0,0,0,0,0,0,0,0,0,0,0,0,0,0,0,0,0,0,0,0,0,0,0,0,0,0,0,0,0,0,0,0,0,0
17517,"Gibbet Hill","40",2877,"3","353","1158","SX503811","","SX511819","313","40","","","","2012-01-20","","191 201","OL28N 112","250300","81100","50.610346","-4.117149","E","",1,0,0,0,0,1,0,0,0,0,0,0,0,0,0,0,0,0,0,0,0,1,0,0,0,0,0,0,0,0,0,0,0,0,0,0,0,0,0,0,0,0,0,0,0,0,0,0,0,0,0,0,0,0,0,0
17518,"Pepperdon Down","40",2877,"3","353","1158","SX779852","SX 77961 85273","SX782853","322","31","outcrop","","Abney level","2012-01-20","","191","OL28N","277958","85267","50.65425","-3.727821","E","",1,0,0,0,0,1,0,0,0,0,0,0,0,0,0,0,0,0,0,0,0,1,0,0,0,0,0,0,0,0,0,0,0,0,0,0,0,0,0,0,0,0,0,0,0,0,0,0,0,0,0,0,0,0,0,0
17519,"Butterdon Hill","40",2877,"3","351","1152","SX750884","SX 75036 88447","SX761883","266","85","cairn","","obvious summit","2012-01-20","","191","OL28N","275033","88441","50.682159","-3.770252","E","",1,0,0,0,0,1,0,0,0,0,0,0,0,0,0,0,0,0,0,0,0,1,0,0,0,0,0,0,0,0,0,0,0,0,0,0,0,0,0,0,0,0,0,0,0,0,0,0,0,0,0,0,0,0,0,0
17520,"Gutter Tor","40",2877,"3","350","1148","SX575667","SX 57531 66751","SX580665","299","51","ground by trig point","","","2012-01-20","","202","OL28S","257528","66745","50.483141","-4.009564","E","",1,0,0,0,0,1,0,0,0,0,0,0,0,0,0,0,0,0,0,0,0,1,0,0,0,0,0,0,0,0,0,0,0,0,0,0,0,0,0,0,0,0,0,0,0,0,0,0,0,0,0,0,0,0,0,0
17521,"Mardon Down East Top","40",2877,"3","349","1145","SX776876","SX 77664 87611","SX770878","319","30","rock","","Abney level","2012-01-20","","191","OL28N","277661","87605","50.675203","-3.732794","E","",1,0,0,0,0,1,0,0,0,0,0,0,0,0,0,0,0,0,0,0,0,1,0,0,0,0,0,0,0,0,0,0,0,0,0,0,0,0,0,0,0,0,0,0,0,0,0,0,0,0,0,0,0,0,0,0
17522,"Tolborough Tor","40",2881,"3","348","1142","SX175778","SX 17543 77884","SX167793","306","42","outcrop: part of ancient cairn","","obvious summit","2015-02-14","","201","109","217540","77878","50.572071","-4.578127","E","",1,0,0,0,0,1,0,0,0,0,0,0,0,0,0,0,0,0,0,0,0,1,0,0,0,0,0,0,0,0,0,0,0,0,0,0,0,0,0,0,0,0,0,0,0,0,0,0,0,0,0,0,0,0,0,0
17523,"Newel Tor","40",2881,"3","346","1135","SX236741","SX 23613 74132","SX240736","284","62","leaning rock slab","outcrop 55m W is lower","Abney level","2015-03-15","","201","109","223610","74126","50.540226","-4.490713","E","",1,0,0,0,0,1,0,0,0,0,0,0,0,0,0,0,0,0,0,0,0,1,0,0,0,0,0,0,0,0,0,0,0,0,0,0,0,0,0,0,0,0,0,0,0,0,0,0,0,0,0,0,0,0,0,0
17524,"Bray Down","40",2881,"3","346","1135","SX188821","SX 18834 82190","SX185806","292","54","grass topped rock slab","base of trig point is lower","Abney level","2018-03-17","","201","109","218831","82184","50.611158","-4.562014","E","",1,0,0,0,0,1,0,0,0,0,0,0,0,0,0,0,0,0,0,0,0,1,0,0,0,0,0,0,0,0,0,0,0,0,0,0,0,0,0,0,0,0,0,0,0,0,0,0,0,0,0,0,0,0,0,0
17525,"Buttern Hill","40",2881,"3","346","1135","SX174816","SX 17472 81675","SX168815","298","48","grassy mound","mound is near Bronze Age chamber tomb","","2012-01-20","","201","109","217469","81669","50.606107","-4.580991","E","",1,0,0,0,0,1,0,0,0,0,0,0,0,0,0,0,0,0,0,0,0,1,0,0,0,0,0,0,0,0,0,0,0,0,0,0,0,0,0,0,0,0,0,0,0,0,0,0,0,0,0,0,0,0,0,0
17526,"Brown Gelly","40",2881,"3","342","1122","SX195727","SX 19592 72726","SX180764","264","78","cairn in centre of hollowed-out central tumulus","","","2015-02-14","","201","109","219589","72720","50.526367","-4.546721","E","",1,0,0,0,0,1,0,0,0,0,0,0,0,0,0,0,0,0,0,0,0,1,0,0,0,0,0,0,0,0,0,0,0,0,0,0,0,0,0,0,0,0,0,0,0,0,0,0,0,0,0,0,0,0,0,0
17527,"Uppacott Down","40",2877,"3","337","1106","SX738889","SX 73882 88959","SX743882","305","32","no feature","2m lower than highest ground on inner ramparts of fort at SX 73848 88929","Abney level","2012-01-20","","191","OL28N","273879","88953","50.686512","-3.786754","E","",1,0,0,0,0,1,0,0,0,0,0,0,0,0,0,0,0,0,0,0,0,1,0,0,0,0,0,0,0,0,0,0,0,0,0,0,0,0,0,0,0,0,0,0,0,0,0,0,0,0,0,0,0,0,0,0
17528,"Nattadon Common","40",2877,"3","333","1093","SX705866","SX 70521 86651","SX704862","275","58","no feature","","Abney level","2012-01-20","","191","OL28N","270518","86645","50.665028","-3.833499","E","",1,0,0,0,0,1,0,0,0,0,0,0,0,0,0,0,0,0,0,0,0,1,0,0,0,0,0,0,0,0,0,0,0,0,0,0,0,0,0,0,0,0,0,0,0,0,0,0,0,0,0,0,0,0,0,0
17529,"Ridge","40",2881,"3","331","1086","SX242777","SX 24249 77777","SX232778","287","44","rock on S edge of summit plateau","","Abney level","2016-10-27","","201","109","224246","77771","50.573166","-4.483468","E","",1,0,0,0,0,1,0,0,0,0,0,0,0,0,0,0,0,0,0,0,0,1,0,0,0,0,0,0,0,0,0,0,0,0,0,0,0,0,0,0,0,0,0,0,0,0,0,0,0,0,0,0,0,0,0,0
17530,"Garrow Tor","40",2881,"3","330","1083","SX144785","SX 14501 78517","SX145793","276","54","granite tor","grassy mound above the tor 35m NNW at SX 14487 78547 is probably lower","Abney level","2015-02-14","","200","109","214498","78511","50.576799","-4.621356","E","",1,0,0,0,0,1,0,0,0,0,0,0,0,0,0,0,0,0,0,0,0,1,0,0,0,0,0,0,0,0,0,0,0,0,0,0,0,0,0,0,0,0,0,0,0,0,0,0,0,0,0,0,0,0,0,0
17531,"Leskernick Hill","40",2881,"3","329","1079","SX183803","SX 18330 80311","SX186798","293","36","grassy mound near pool","boulder c 40m N at SX 18332 80356 may be as high","Abney level","2012-01-20","","201","109","218327","80305","50.59412","-4.568211","E","",1,0,0,0,0,1,0,0,0,0,0,0,0,0,0,0,0,0,0,0,0,1,0,0,0,0,0,0,0,0,0,0,0,0,0,0,0,0,0,0,0,0,0,0,0,0,0,0,0,0,0,0,0,0,0,0
17532,"Hawk's Tor","40",2881,"3","329","1079","SX253763","SX 25388 76346","SX248755","293","36","rock tor","","Abney level","2012-01-20","","201","109","225385","76340","50.560651","-4.466726","E","",1,0,0,0,0,1,0,0,0,0,0,0,0,0,0,0,0,0,0,0,0,1,0,0,0,0,0,0,0,0,0,0,0,0,0,0,0,0,0,0,0,0,0,0,0,0,0,0,0,0,0,0,0,0,0,0
17533,"Ausewell Rocks","40",2877,"3","325","1066","SX735717","SX 73589 71777","SX738721","292","33","rock tower","eastern rock tower is slightly lower","Abney level","2014-10-30","","202","OL28S","273586","71771","50.532006","-3.785044","E","",1,0,0,0,0,1,0,0,0,0,0,0,0,0,0,0,0,0,0,0,0,1,0,0,0,0,0,0,0,0,0,0,0,0,0,0,0,0,0,0,0,0,0,0,0,0,0,0,0,0,0,0,0,0,0,0
17534,"Laployd Hill","40",2877,"3","323","1060","SX804850","","SX800856","279","44","","","","2012-01-20","","191","OL28N OL44 110","280400","85000","50.652357","-3.693207","E","",1,0,0,0,0,1,0,0,0,0,0,0,0,0,0,0,0,0,0,0,0,1,0,0,0,0,0,0,0,0,0,0,0,0,0,0,0,0,0,0,0,0,0,0,0,0,0,0,0,0,0,0,0,0,0,0
17535,"Fox Tor","40",2881,"3","323","1060","SX226785","SX 22622 78592","SX208773","288","35","rock tor 15m SW of trig point","tor NE of trig point is c. 0.5m lower","Abney level","2015-03-15","","201","109","222619","78586","50.579997","-4.506811","E","",1,0,0,0,0,1,0,0,0,0,0,0,0,0,0,0,0,0,0,0,0,1,0,0,0,0,0,0,0,0,0,0,0,0,0,0,0,0,0,0,0,0,0,0,0,0,0,0,0,0,0,0,0,0,0,0
17536,"Heltor Rock","40",2877,"3","322","1056","SX799870","","SX791863","285","37","","","","2014-04-15","Relocated from SX795869 April 2014","191","OL28N OL44 110","279900","87000","50.670231","-3.700927","E","",1,0,0,0,0,1,0,0,0,0,0,0,0,0,0,0,0,0,0,0,0,1,0,0,0,0,0,0,0,0,0,0,0,0,0,0,0,0,0,0,0,0,0,0,0,0,0,0,0,0,0,0,0,0,0,0
17537,"Butter's Tor","40",2881,"3","316","1037","SX154783","SX 15495 78336","SX158776","282","34","outcrop","","","2016-04-06","","201","109","215492","78330","50.575488","-4.607242","E","",1,0,0,0,0,1,0,0,0,0,0,0,0,0,0,0,0,0,0,0,0,1,0,0,0,0,0,0,0,0,0,0,0,0,0,0,0,0,0,0,0,0,0,0,0,0,0,0,0,0,0,0,0,0,0,0
17538,"Louden Hill","40",2881,"3","315","1033","SX137803","SX 13754 80314","SX140804","283","32","flat granite plinth","","","2014-08-07","","200","109","213751","80308","50.592705","-4.632795","E","",1,0,0,0,0,1,0,0,0,0,0,0,0,0,0,0,0,0,0,0,0,1,0,0,0,0,0,0,0,0,0,0,0,0,0,0,0,0,0,0,0,0,0,0,0,0,0,0,0,0,0,0,0,0,0,0
17539,"Beara Common","40",2877,"3","311","1020","SX703617","SX 70308 61709","SX704621","257","54","rock outcrop N of trig point","","Abney level","2016-12-23","","202","OL20E OL28S","270305","61703","50.440789","-3.827819","E","",1,0,0,0,0,1,0,0,0,0,0,0,0,0,0,0,0,0,0,0,0,1,0,0,0,0,0,0,0,0,0,0,0,0,0,0,0,0,0,0,0,0,0,0,0,0,0,0,0,0,0,0,0,0,0,0
17540,"Condolden Barrow","40",2881,"3","308","1010","SX090871","SX 09053 87187","SX111881","258","50","ground by trig point on tumulus","if the highest natural ground does not lie beneath the tumulus then ground at approximately SX 09015 87225 (3m lower than top of tumulus) would be the natural summit; land surrounding tumulus is very flat","","2017-09-18","","190 200","111","209050","87181","50.652926","-4.702676","E","",1,0,0,0,0,1,0,0,0,0,0,0,0,0,0,0,0,0,0,0,0,1,0,0,0,0,0,0,0,0,0,0,0,0,0,0,0,0,0,0,0,0,0,0,0,0,0,0,0,0,0,0,0,0,0,0
17541,"Hawk's Tor","40",2881,"3","307","1007","SX141755","SX 14138 75555","SX143763","246","61","tor 1m N of trig point","","Abney level","2015-02-14","","200","109","214135","75549","50.550074","-4.624997","E","",1,0,0,0,0,1,0,0,0,0,0,0,0,0,0,0,0,0,0,0,0,1,0,0,0,0,0,0,0,0,0,0,0,0,0,0,0,0,0,0,0,0,0,0,0,0,0,0,0,0,0,0,0,0,0,0
17542,"Gisperdown","40",2877,"3","302","991","SX697631","","SX694634","272","30","","","","2012-01-20","","202","OL20W OL28S","269700","63100","50.453212","-3.836825","E","",1,0,0,0,0,1,0,0,0,0,0,0,0,0,0,0,0,0,0,0,0,1,0,0,0,0,0,0,0,0,0,0,0,0,0,0,0,0,0,0,0,0,0,0,0,0,0,0,0,0,0,0,0,0,0,0
17543,"Livaton Hill","40",2877,"2","296","971","SX675930","SX 67594 93031","SX655922","246","50","no feature","","","2015-02-08","","191","OL28N 113","267591","93025","50.721714","-3.87718","E","",1,0,0,0,0,1,0,0,0,0,0,0,0,0,0,0,0,0,0,0,0,0,1,0,0,0,0,0,0,0,0,0,0,0,0,0,0,0,0,0,0,0,0,0,0,0,0,0,0,0,0,0,0,0,0,0
17544,"Alex Tor","40",2881,"2","291","955","SX118787","SX 11847 78731","SX119790","261","30","rock tor","","Abney level","2012-01-20","","200","109","211844","78725","50.577872","-4.658906","E","",1,0,0,0,0,1,0,0,0,0,0,0,0,0,0,0,0,0,0,0,0,0,1,0,0,0,0,0,0,0,0,0,0,0,0,0,0,0,0,0,0,0,0,0,0,0,0,0,0,0,0,0,0,0,0,0
17545,"Ramsdown Hill","40",2877,"2","286","938","SX417800","","SX436794","224","62","","","","2015-02-08","","201","112","241700","80000","50.598190","-4.238134","E","",1,0,0,0,0,1,0,0,0,0,0,0,0,0,0,0,0,0,0,0,0,0,1,0,0,0,0,0,0,0,0,0,0,0,0,0,0,0,0,0,0,0,0,0,0,0,0,0,0,0,0,0,0,0,0,0
17546,"Berry Down","40",2881,"2","283","928","SX196690","SX 19661 69040","SX196693","245","38","rock tor 4m east of trig point","","obvious summit","2015-02-14","","201","109","219658","69034","50.493272","-4.543968","E","",1,0,0,0,0,1,0,0,0,0,0,0,0,0,0,0,0,0,0,0,0,0,1,0,0,0,0,0,0,0,0,0,0,0,0,0,0,0,0,0,0,0,0,0,0,0,0,0,0,0,0,0,0,0,0,0
17547,"Draynes Common","40",2881,"2","283","928","SX213700","","SX203718","252","31","","","","2012-08-27","","201","109","221300","70000","50.502454","-4.521308","E","",1,0,0,0,0,1,0,0,0,0,0,0,0,0,0,0,0,0,0,0,0,0,1,0,0,0,0,0,0,0,0,0,0,0,0,0,0,0,0,0,0,0,0,0,0,0,0,0,0,0,0,0,0,0,0,0
17548,"Broadbury","40",2877,"2","281","922","SX484954","","SX525942","236","45","","","","2012-01-20","","191","112","248400","95400","50.738363","-4.149847","E","",1,0,0,0,0,1,0,0,0,0,0,0,0,0,0,0,0,0,0,0,0,0,1,0,0,0,0,0,0,0,0,0,0,0,0,0,0,0,0,0,0,0,0,0,0,0,0,0,0,0,0,0,0,0,0,0
17549,"Carburrow Tor","40",2881,"2","280","919","SX155708","SX 15543 70808","SX154728","239","41","ground by SE side of windshelter","windshelter sits on enormous and partially grassed-over pile of stones","","2015-02-14","","201","109","215540","70802","50.507873","-4.602837","E","",1,0,0,0,0,1,0,0,0,0,0,0,0,0,0,0,0,0,0,0,0,0,1,0,0,0,0,0,0,0,0,0,0,0,0,0,0,0,0,0,0,0,0,0,0,0,0,0,0,0,0,0,0,0,0,0
17550,"Longstone Downs","40",19290,"3","319.8","1049","SW980554","SW 98064 55452","SW983556","273","47","no feature: heather","","Abney level/Leica RX1250","2017-02-04","","200","106","198061","55446","50.364173","-4.840767","E","",1,0,0,0,0,1,0,0,0,0,0,0,0,0,0,0,0,0,0,0,0,1,0,0,0,0,0,0,0,0,0,0,0,0,0,0,0,0,0,0,0,0,0,0,0,0,0,0,0,0,0,0,0,0,0,0
17551,"Notter Tor","40",2881,"2","279","915","SX271737","SX 27165 73772","SX268738","237","42","rock tor","","","2012-01-20","","201","109","227162","73766","50.538052","-4.440466","E","",1,0,0,0,0,1,0,0,0,0,0,0,0,0,0,0,0,0,0,0,0,0,1,0,0,0,0,0,0,0,0,0,0,0,0,0,0,0,0,0,0,0,0,0,0,0,0,0,0,0,0,0,0,0,0,0
17552,"Temple Tor","40",2881,"2","276","906","SX140736","SX 14040 73676","SX142745","241","35","no feature","","","2015-03-15","","200","109","214037","73670","50.533163","-4.625441","E","",1,0,0,0,0,1,0,0,0,0,0,0,0,0,0,0,0,0,0,0,0,0,1,0,0,0,0,0,0,0,0,0,0,0,0,0,0,0,0,0,0,0,0,0,0,0,0,0,0,0,0,0,0,0,0,0
17553,"Sloncombe Hill","40",2877,"2","276","906","SX730863","","SX729854","246","30","","","","2012-01-20","","191","OL28N","273000","86300","50.662474","-3.798281","E","",1,0,0,0,0,1,0,0,0,0,0,0,0,0,0,0,0,0,0,0,0,0,1,0,0,0,0,0,0,0,0,0,0,0,0,0,0,0,0,0,0,0,0,0,0,0,0,0,0,0,0,0,0,0,0,0
17554,"Wigford Down","40",2877,"2","273","896","SX546651","","SX553653","237","36","","","","2015-02-14","","201","OL20W OL28S","254600","65100","50.467637","-4.050172","E","",1,0,0,0,0,1,0,0,0,0,0,0,0,0,0,0,0,0,0,0,0,0,1,0,0,0,0,0,0,0,0,0,0,0,0,0,0,0,0,0,0,0,0,0,0,0,0,0,0,0,0,0,0,0,0,0
17555,"Great Care Hill","40",2881,"2","272","892","SX140712","SX 14087 71294","SX135736","241","31","grassy mound","mound is 6m E of metal stake and embedded boulder","Abney level","2015-03-15","","200","109","214084","71288","50.511778","-4.623591","E","",1,0,0,0,0,1,0,0,0,0,0,0,0,0,0,0,0,0,0,0,0,0,1,0,0,0,0,0,0,0,0,0,0,0,0,0,0,0,0,0,0,0,0,0,0,0,0,0,0,0,0,0,0,0,0,0
17556,"Wastor Hill","40",2877,"2","271","889","SX492827","","SX479819","223","48","","","","2012-01-20","","191 201","112","249200","82700","50.624442","-4.133336","E","",1,0,0,0,0,1,0,0,0,0,0,0,0,0,0,0,0,0,0,0,0,0,1,0,0,0,0,0,0,0,0,0,0,0,0,0,0,0,0,0,0,0,0,0,0,0,0,0,0,0,0,0,0,0,0,0
17557,"Hingston Down","40",2883,"2","268","879","SX409714","SX 40976 71433","SX390712","221","47","no feature","mounds 110m NW at SX 40891 71507 and 160m NW SX 40865 71547 are of similar height","Abney level","2012-01-20","","201","108","240973","71427","50.520954","-4.24473","E","",1,0,0,0,0,1,0,0,0,0,0,0,0,0,0,0,0,0,0,0,0,0,1,0,0,0,0,0,0,0,0,0,0,0,0,0,0,0,0,0,0,0,0,0,0,0,0,0,0,0,0,0,0,0,0,0
17558,"Shaptor Rock","40",2877,"2","268","879","SX809808","SX 80970 80882","SX809814","236","32","granite slab","","","2012-01-20","","191","OL44 110","280967","80876","50.615402","-3.683863","E","",1,0,0,0,0,1,0,0,0,0,0,0,0,0,0,0,0,0,0,0,0,0,1,0,0,0,0,0,0,0,0,0,0,0,0,0,0,0,0,0,0,0,0,0,0,0,0,0,0,0,0,0,0,0,0,0
17559,"Way Down","40",2877,"2","267","876","SX684889","SX 68465 88914","SX689901","218","49","no feature: crest of rise S of hedge","","","2012-01-20","","191","OL28N","268462","88908","50.684907","-3.86338","E","",1,0,0,0,0,1,0,0,0,0,0,0,0,0,0,0,0,0,0,0,0,0,1,0,0,0,0,0,0,0,0,0,0,0,0,0,0,0,0,0,0,0,0,0,0,0,0,0,0,0,0,0,0,0,0,0
17560,"Piddledown Common","40",2877,"2","265","869","SX729901","","SX718910","217","48","","","","2015-02-08","","191","OL28N 113","272900","90100","50.696608","-3.801003","E","",1,0,0,0,0,1,0,0,0,0,0,0,0,0,0,0,0,0,0,0,0,0,1,0,0,0,0,0,0,0,0,0,0,0,0,0,0,0,0,0,0,0,0,0,0,0,0,0,0,0,0,0,0,0,0,0
17561,"Burley Down","40",2877,"2","264","866","SX489865","","SX487858","218","46","","","","2012-01-20","","191 201","112","248900","86500","50.658513","-4.139124","E","",1,0,0,0,0,1,0,0,0,0,0,0,0,0,0,0,0,0,0,0,0,0,1,0,0,0,0,0,0,0,0,0,0,0,0,0,0,0,0,0,0,0,0,0,0,0,0,0,0,0,0,0,0,0,0,0
17562,"Tresparrett Down","40",2881,"2","263","863","SX134932","SX 13419 93214","SX150919","198","65","rim of tumulus","","Abney level","2015-02-14","","190","111","213416","93208","50.708484","-4.644024","E","",1,0,0,0,0,1,0,0,0,0,0,0,0,0,0,0,0,0,0,0,0,0,1,0,0,0,0,0,0,0,0,0,0,0,0,0,0,0,0,0,0,0,0,0,0,0,0,0,0,0,0,0,0,0,0,0
17563,"Ball Hill","40",2877,"2","257","843","SX625962","SX 62601 96261","SX627956","227","30","hedgerow","","","2014-08-07","","191","113","262598","96255","50.749584","-3.949078","E","",1,0,0,0,0,1,0,0,0,0,0,0,0,0,0,0,0,0,0,0,0,0,1,0,0,0,0,0,0,0,0,0,0,0,0,0,0,0,0,0,0,0,0,0,0,0,0,0,0,0,0,0,0,0,0,0
17564,"Tredarrup Hill","40",2881,"2","256","840","SX194904","","SX188896","223","33","","","","2012-01-20","","190","111","219400","90400","50.685147","-4.557991","E","",1,0,0,0,0,1,0,0,0,0,0,0,0,0,0,0,0,0,0,0,0,0,1,0,0,0,0,0,0,0,0,0,0,0,0,0,0,0,0,0,0,0,0,0,0,0,0,0,0,0,0,0,0,0,0,0
17565,"Broadmoor Common","40",2877,"2","247","810","SX754900","","SX750900","216","31","","","","2015-02-09","","191","OL28N 113","275400","90000","50.696251","-3.765588","E","",1,0,0,0,0,1,0,0,0,0,0,0,0,0,0,0,0,0,0,0,0,0,1,0,0,0,0,0,0,0,0,0,0,0,0,0,0,0,0,0,0,0,0,0,0,0,0,0,0,0,0,0,0,0,0,0
17566,"Little Haldon","40",2877,"2","247","810","SX916752","","SX912780","172","75","","","","2015-02-08","","192","OL44 110","291600","75200","50.566450","-3.531972","E","",1,0,0,0,0,1,0,0,0,0,0,0,0,0,0,0,0,0,0,0,0,0,1,0,0,0,0,0,0,0,0,0,0,0,0,0,0,0,0,0,0,0,0,0,0,0,0,0,0,0,0,0,0,0,0,0
17567,"Trendrine Hill","40",2887,"2","247","810","SW478387","","SW444353","184","63","","","","2012-01-20","","203","102","147800","38700","50.194472","-5.535023","E","",1,0,0,0,0,1,0,0,0,0,0,0,0,0,0,0,0,0,0,0,0,0,1,0,0,0,0,0,0,0,0,0,0,0,0,0,0,0,0,0,0,0,0,0,0,0,0,0,0,0,0,0,0,0,0,0
17568,"Ashburton Down","40",2877,"2","241","791","SX761722","","SX763728","197","44","","","","2012-01-20","","191","OL28S","276100","72200","50.536401","-3.749735","E","",1,0,0,0,0,1,0,0,0,0,0,0,0,0,0,0,0,0,0,0,0,0,1,0,0,0,0,0,0,0,0,0,0,0,0,0,0,0,0,0,0,0,0,0,0,0,0,0,0,0,0,0,0,0,0,0
17569,"Hendon Moor","40",2877,"2","233","764","SS260182","","SS405025","146","87","","","","2014-04-07","ground at base of covered reservoir 150m W is probably lower","190","126","226000","118200","50.936923","-4.477838","E","",1,0,0,0,0,1,0,0,0,0,0,0,0,0,0,0,0,0,0,0,0,0,1,0,0,0,0,0,0,0,0,0,0,0,0,0,0,0,0,0,0,0,0,0,0,0,0,0,0,0,0,0,0,0,0,0
17570,"Carn Marth","40",2886,"2","235","771","SW715408","SW 71513 40843","SW709405","175","60","trig point","embedded rock 10m NE and knoll 65m ESE at SW 71583 40826 may be as high","","2012-01-20","","203","104","171510","40837","50.223283","-5.204677","E","",1,0,0,0,0,1,0,0,0,0,0,0,0,0,0,0,0,0,0,0,0,0,1,0,0,0,0,0,0,0,0,0,0,0,0,0,0,0,0,0,0,0,0,0,0,0,0,0,0,0,0,0,0,0,0,0
17571,"Hangman's Barrow","40",2886,"2","235","771","SW673366","SW 67340 36673","SW677370","204","31","tumulus","","","2012-01-20","","203","103 104","167337","36666","50.184213","-5.260527","E","",1,0,0,0,0,1,0,0,0,0,0,0,0,0,0,0,0,0,0,0,0,0,1,0,0,0,0,0,0,0,0,0,0,0,0,0,0,0,0,0,0,0,0,0,0,0,0,0,0,0,0,0,0,0,0,0
17572,"Rushford Tower","40",2877,"Un","234","768","SX702890","","SX700890","206","28","","","","2014-02-14","Deleted from Tumps list Feb 2014","191","OL28N","270200","89000","50.686124","-3.838825","E","",1,0,0,0,0,0,0,0,0,0,0,0,0,0,0,0,0,0,0,0,0,0,0,0,0,0,0,0,0,0,0,0,0,0,0,0,0,0,0,0,0,0,0,0,0,0,0,0,0,0,0,0,0,1,0,0
17573,"Green Down","40",2877,"2","235","771","SX713696","SX 71356 69642","SX706696","191","44","no feature","level summit area","Abney level","2015-02-14","","202","OL28S","271353","69636","50.512328","-3.815798","E","",1,0,0,0,0,1,0,0,0,0,0,0,0,0,0,0,0,0,0,0,0,0,1,0,0,0,0,0,0,0,0,0,0,0,0,0,0,0,0,0,0,0,0,0,0,0,0,0,0,0,0,0,0,0,0,0
17574,"Hanger Down","40",2877,"2","233","764","SX619589","SX 61916 58954","SX623598","198","35","no feature: pasture","rocks 30m W at SX 61882 58950 are higher but unnatural","Abney level","2012-01-20","","202","OL20W OL28S","261913","58948","50.414111","-3.944917","E","",1,0,0,0,0,1,0,0,0,0,0,0,0,0,0,0,0,0,0,0,0,0,1,0,0,0,0,0,0,0,0,0,0,0,0,0,0,0,0,0,0,0,0,0,0,0,0,0,0,0,0,0,0,0,0,0
17575,"Ideford Common","40",2877,"2","233","764","SX905788","","SX899806","202","31","","","","2014-08-07","","192","OL44 110","290500","78800","50.598607","-3.548560","E","",1,0,0,0,0,1,0,0,0,0,0,0,0,0,0,0,0,0,0,0,0,0,1,0,0,0,0,0,0,0,0,0,0,0,0,0,0,0,0,0,0,0,0,0,0,0,0,0,0,0,0,0,0,0,0,0
17576,"Bursdon Moor","40",2877,"2","228","748","SS267196","SS 26749 19637","SS271188","178","50","no feature","40m S of signboard","Seco 2x Hand Level","2012-01-20","","190","126","226746","119631","50.950005","-4.467911","E","",1,0,0,0,0,1,0,0,0,0,0,0,0,0,0,0,0,0,0,0,0,0,1,0,0,0,0,0,0,0,0,0,0,0,0,0,0,0,0,0,0,0,0,0,0,0,0,0,0,0,0,0,0,0,0,0
17577,"Carn Brea","40",2886,"2","228","748","SW683407","SW 68329 40714","SW683398","181","47","rock tor c10m SW of monument","rock tor 17m SW of monument at SW 68336 40722 may be as high","","2012-01-20","","203","104","168326","40708","50.220886","-5.249161","E","",1,0,0,0,0,1,0,0,0,0,0,0,0,0,0,0,0,0,0,0,0,0,1,0,0,0,0,0,0,0,0,0,0,0,0,0,0,0,0,0,0,0,0,0,0,0,0,0,0,0,0,0,0,0,0,0
17578,"Rosewall Hill","40",2887,"2","227","745","SW487391","","SW487382","159","68","","","","2012-01-20","","203","102","148700","39100","50.198445","-5.522702","E","",1,0,0,0,0,1,0,0,0,0,0,0,0,0,0,0,0,0,0,0,0,0,1,0,0,0,0,0,0,0,0,0,0,0,0,0,0,0,0,0,0,0,0,0,0,0,0,0,0,0,0,0,0,0,0,0
17579,"Belowda Beacon","40",19290,"2","227","745","SW971625","SW 97139 62541","SW976617","166","61","ground within 3m of trig point on tumulus","","Abney level","2012-01-20","","200","106","197136","62535","50.42753","-4.857584","E","",1,0,0,0,0,1,0,0,0,0,0,0,0,0,0,0,0,0,0,0,0,0,1,0,0,0,0,0,0,0,0,0,0,0,0,0,0,0,0,0,0,0,0,0,0,0,0,0,0,0,0,0,0,0,0,0
17580,"Gormain Hill","40",2881,"2","227","745","SX226681","","SX227685","196","31","","","","2014-08-07","","201","109","222600","68100","50.485779","-4.502092","E","",1,0,0,0,0,1,0,0,0,0,0,0,0,0,0,0,0,0,0,0,0,0,1,0,0,0,0,0,0,0,0,0,0,0,0,0,0,0,0,0,0,0,0,0,0,0,0,0,0,0,0,0,0,0,0,0
17581,"Bartinney Downs","40",2887,"2","224","735","SW394293","","SW395300","173","51","","","","2012-01-20","","203","102","139400","29300","50.106466","-5.646041","E","",1,0,0,0,0,1,0,0,0,0,0,0,0,0,0,0,0,0,0,0,0,0,1,0,0,0,0,0,0,0,0,0,0,0,0,0,0,0,0,0,0,0,0,0,0,0,0,0,0,0,0,0,0,0,0,0
17582,"Boswens Common","40",2887,"2","224","735","SW401325","SW 40147 32595","SW409343","182","42","boulder","boulder 35m NE at SW 40178 32612 may be as high, ground 850m east at 224m spot height on 50k map and old maps could be as high or higher","","2015-02-14","","203","102","140144","32588","50.136305","-5.637898","E","",1,0,0,0,0,1,0,0,0,0,0,0,0,0,0,0,0,0,0,0,0,0,1,0,0,0,0,0,0,0,0,0,0,0,0,0,0,0,0,0,0,0,0,0,0,0,0,0,0,0,0,0,0,0,0,0
17583,"Cotley Castle","40",2877,"2","223","732","SX859895","SX 85999 89522","SX858891","174","49","no feature","flat summit area","","2017-03-07","","191","OL44 110 114S","285996","89516","50.694076","-3.615472","E","",1,0,0,0,0,1,0,0,0,0,0,0,0,0,0,0,0,0,0,0,0,0,1,0,0,0,0,0,0,0,0,0,0,0,0,0,0,0,0,0,0,0,0,0,0,0,0,0,0,0,0,0,0,0,0,0
17584,"Helsbury Castle","40",2881,"2","221","725","SX083795","SX 08358 79583","SX088801","186","35","large embedded boulder","","Abney level","2012-01-20","","200","109","208355","79577","50.584391","-4.708567","E","",1,0,0,0,0,1,0,0,0,0,0,0,0,0,0,0,0,0,0,0,0,0,1,0,0,0,0,0,0,0,0,0,0,0,0,0,0,0,0,0,0,0,0,0,0,0,0,0,0,0,0,0,0,0,0,0
17585,"Mulfra Hill","40",2887,"2","221","725","SW450354","SW 45080 35456","SW450362","189","32","rock","flat summit area","","2015-02-14","","203","102","145077","35449","50.164126","-5.570921","E","",1,0,0,0,0,1,0,0,0,0,0,0,0,0,0,0,0,0,0,0,0,0,1,0,0,0,0,0,0,0,0,0,0,0,0,0,0,0,0,0,0,0,0,0,0,0,0,0,0,0,0,0,0,0,0,0
17586,"Mapstone Hill","40",2877,"2","221","725","SX781820","","SX776825","189","32","","","","2012-01-20","","191","OL28N OL44 110","278100","82000","50.624913","-3.724740","E","",1,0,0,0,0,1,0,0,0,0,0,0,0,0,0,0,0,0,0,0,0,0,1,0,0,0,0,0,0,0,0,0,0,0,0,0,0,0,0,0,0,0,0,0,0,0,0,0,0,0,0,0,0,0,0,0
17587,"Tregearedown Beacon","40",2881,"2","219","718","SX250868","SX 25053 86831","SX242865","172","47","no feature: pasture","summit area very flat","","2012-01-20","","201","111","225050","86825","50.654755","-4.476394","E","",1,0,0,0,0,1,0,0,0,0,0,0,0,0,0,0,0,0,0,0,0,0,1,0,0,0,0,0,0,0,0,0,0,0,0,0,0,0,0,0,0,0,0,0,0,0,0,0,0,0,0,0,0,0,0,0
17588,"Pitton Hill","40",2877,"2","220","722","SX748949","","SX741937","188","32","","","","2014-02-14","","191","OL28N 113","274800","94900","50.740165","-3.775744","E","",1,0,0,0,0,1,0,0,0,0,0,0,0,0,0,0,0,0,0,0,0,0,1,0,0,0,0,0,0,0,0,0,0,0,0,0,0,0,0,0,0,0,0,0,0,0,0,0,0,0,0,0,0,0,0,0
17589,"Crosshill","40",2877,"2","218","715","SX765945","","SX757937","177","41","","","","2015-02-08","","191","OL28N 113","276500","94500","50.736933","-3.751529","E","",1,0,0,0,0,1,0,0,0,0,0,0,0,0,0,0,0,0,0,0,0,0,1,0,0,0,0,0,0,0,0,0,0,0,0,0,0,0,0,0,0,0,0,0,0,0,0,0,0,0,0,0,0,0,0,0
17590,"Parson's Plot Brake","40",2877,"2","217","712","SX874892","SX 87473 89209","SX866897","157","60","trig point","","","2012-01-20","","192","OL44 110 114S","287470","89203","50.691549","-3.594515","E","",1,0,0,0,0,1,0,0,0,0,0,0,0,0,0,0,0,0,0,0,0,0,1,0,0,0,0,0,0,0,0,0,0,0,0,0,0,0,0,0,0,0,0,0,0,0,0,0,0,0,0,0,0,0,0,0
17591,"Burford Hill","40",2877,"2","217","712","SS299223","SS 29966 22306","SS280218","187","30","low mound","summit is on N side of road just E of farm entrance; flat summit area","","2018-06-07","","190","126","229963","122300","50.974943","-4.423403","E","",1,0,0,0,0,1,0,0,0,0,0,0,0,0,0,0,0,0,0,0,0,0,1,0,0,0,0,0,0,0,0,0,0,0,0,0,0,0,0,0,0,0,0,0,0,0,0,0,0,0,0,0,0,0,0,0
17592,"Castle Downs","40",19290,"2","216","709","SW945623","SW 94552 62338","SW956628","149","67","tumulus","high point on inner ramparts 70m NNW at SW 94519 62397 is just lower","Abney level","2012-01-20","","200","106","194549","62332","50.424807","-4.893848","E","",1,0,0,0,0,1,0,0,0,0,0,0,0,0,0,0,0,0,0,0,0,0,1,0,0,0,0,0,0,0,0,0,0,0,0,0,0,0,0,0,0,0,0,0,0,0,0,0,0,0,0,0,0,0,0,0
17593,"Melbury Hill","40",2877,"2","216","709","SS381195","","SS378201","176","40","","","","2012-01-20","","190","126","238100","119500","50.952128","-4.306356","E","",1,0,0,0,0,1,0,0,0,0,0,0,0,0,0,0,0,0,0,0,0,0,1,0,0,0,0,0,0,0,0,0,0,0,0,0,0,0,0,0,0,0,0,0,0,0,0,0,0,0,0,0,0,0,0,0
17594,"Trevadlock Hill","40",2881,"2","216","709","SX269795","SX 26990 79542","SX246803","184","32","no feature: ground in field c40m NE of double gates","","Abney level","2012-01-20","","201","109","226987","79536","50.589843","-4.445617","E","",1,0,0,0,0,1,0,0,0,0,0,0,0,0,0,0,0,0,0,0,0,0,1,0,0,0,0,0,0,0,0,0,0,0,0,0,0,0,0,0,0,0,0,0,0,0,0,0,0,0,0,0,0,0,0,0
17595,"Deveral Common","40",2887,"2","218","715","SW404309","SW 40413 30985","SW406317","186","32","earthwork","","","2016-07-06","","203","102","140410","30978","50.12197","-5.633088","E","",1,0,0,0,0,1,0,0,0,0,0,0,0,0,0,0,0,0,0,0,0,0,1,0,0,0,0,0,0,0,0,0,0,0,0,0,0,0,0,0,0,0,0,0,0,0,0,0,0,0,0,0,0,0,0,0
17596,"Trink Hill","40",2887,"2","212","696","SW504371","","SW492380","150","62","","","","2012-01-20","","203","102","150400","37100","50.181211","-5.497615","E","",1,0,0,0,0,1,0,0,0,0,0,0,0,0,0,0,0,0,0,0,0,0,1,0,0,0,0,0,0,0,0,0,0,0,0,0,0,0,0,0,0,0,0,0,0,0,0,0,0,0,0,0,0,0,0,0
17597,"St Stephen's Beacon","40",19290,"2","212","696","SW959545","SW 95975 54512","SW961547","177","35","grassy knoll by small tree","","","2016-12-23","","200","106","195972","54506","50.355009","-4.869591","E","",1,0,0,0,0,1,0,0,0,0,0,0,0,0,0,0,0,0,0,0,0,0,1,0,0,0,0,0,0,0,0,0,0,0,0,0,0,0,0,0,0,0,0,0,0,0,0,0,0,0,0,0,0,0,0,0
17598,"Lanlivery Hill","40",19290,"2","210","689","SX071590","SX 07113 59063","SX044619","132","78","no feature: at edge of field","","","2015-10-23","","200","107","207110","59057","50.399649","-4.715538","E","",1,0,0,0,0,1,0,0,0,0,0,0,0,0,0,0,0,0,0,0,0,0,1,0,0,0,0,0,0,0,0,0,0,0,0,0,0,0,0,0,0,0,0,0,0,0,0,0,0,0,0,0,0,0,0,0
17599,"Lobhill","40",2877,"2","210","689","SX457869","","SX472886","167","43","","","","2012-01-20","","201","112","245700","86900","50.661268","-4.184530","E","",1,0,0,0,0,1,0,0,0,0,0,0,0,0,0,0,0,0,0,0,0,0,1,0,0,0,0,0,0,0,0,0,0,0,0,0,0,0,0,0,0,0,0,0,0,0,0,0,0,0,0,0,0,0,0,0
17600,"Helman Tor","40",19290,"2","210","689","SX062615","SX 06207 61581","SX071595","174","36","tor: 2m SW of trig point","","obvious summit","2015-02-21","","200","107","206204","61575","50.42197","-4.729572","E","",1,0,0,0,0,1,0,0,0,0,0,0,0,0,0,0,0,0,0,0,0,0,1,0,0,0,0,0,0,0,0,0,0,0,0,0,0,0,0,0,0,0,0,0,0,0,0,0,0,0,0,0,0,0,0,0
17601,"Bury Down","40",2881,"2","209","686","SX192594","","SX199648","134","75","","","","2015-03-15","","201","107","219200","59400","50.406575","-4.545772","E","",1,0,0,0,0,1,0,0,0,0,0,0,0,0,0,0,0,0,0,0,0,0,1,0,0,0,0,0,0,0,0,0,0,0,0,0,0,0,0,0,0,0,0,0,0,0,0,0,0,0,0,0,0,0,0,0
17602,"Huntshaw Hill","40",2877,"2","209","686","SS532221","","SS625066","143","66","","","","2015-02-08","","180","127 139","253200","122100","50.979538","-4.092587","E","",1,0,0,0,0,1,0,0,0,0,0,0,0,0,0,0,0,0,0,0,0,0,1,0,0,0,0,0,0,0,0,0,0,0,0,0,0,0,0,0,0,0,0,0,0,0,0,0,0,0,0,0,0,0,0,0
17603,"Newhouse Moor","40",2877,"2","209","686","SX842924","SX 84267 92425","SX850920","178","31","no feature: pasture","","","2012-01-20","","191","114S","284264","92419","50.719829","-3.640894","E","",1,0,0,0,0,1,0,0,0,0,0,0,0,0,0,0,0,0,0,0,0,0,1,0,0,0,0,0,0,0,0,0,0,0,0,0,0,0,0,0,0,0,0,0,0,0,0,0,0,0,0,0,0,0,0,0
17604,"Boreston Hill","40",2877,"2","208","682","SX763539","","SX767528","172","36","","","","2014-06-22","","202","OL20E","276300","53900","50.371941","-3.740867","E","",1,0,0,0,0,1,0,0,0,0,0,0,0,0,0,0,0,0,0,0,0,0,1,0,0,0,0,0,0,0,0,0,0,0,0,0,0,0,0,0,0,0,0,0,0,0,0,0,0,0,0,0,0,0,0,0
17605,"Burrington Moor","40",2877,"2","207","679","SS608165","","SS553208","159","48","","","","2012-01-20","","180","127","260800","116500","50.931100","-3.982250","E","",1,0,0,0,0,1,0,0,0,0,0,0,0,0,0,0,0,0,0,0,0,0,1,0,0,0,0,0,0,0,0,0,0,0,0,0,0,0,0,0,0,0,0,0,0,0,0,0,0,0,0,0,0,0,0,0
17606,"Rame Common","40",2886,"2","206","676","SW727338","","SW714345","171","35","","","","2015-03-15","","204","103","172700","33800","50.160556","-5.183815","E","",1,0,0,0,0,1,0,0,0,0,0,0,0,0,0,0,0,0,0,0,0,0,1,0,0,0,0,0,0,0,0,0,0,0,0,0,0,0,0,0,0,0,0,0,0,0,0,0,0,0,0,0,0,0,0,0
17607,"Ramshorn Down","40",2877,"2","204","669","SX792739","SX 79265 73940","SX790741","173","31","no feature: grass","E top is slightly lower","Abney level","2014-08-07","","191","OL44 110","279262","73934","50.552649","-3.705695","E","",1,0,0,0,0,1,0,0,0,0,0,0,0,0,0,0,0,0,0,0,0,0,1,0,0,0,0,0,0,0,0,0,0,0,0,0,0,0,0,0,0,0,0,0,0,0,0,0,0,0,0,0,0,0,0,0
17608,"Crift Downs","40",19290,"2","206","676","SX068600","SX 06879 60018","SX062613","176","30","no feature: pasture","","Abney level","2016-12-23","","200","107","206876","60012","50.408151","-4.719318","E","",1,0,0,0,0,1,0,0,0,0,0,0,0,0,0,0,0,0,0,0,0,0,1,0,0,0,0,0,0,0,0,0,0,0,0,0,0,0,0,0,0,0,0,0,0,0,0,0,0,0,0,0,0,0,0,0
17609,"Fraddon Down","40",19290,"2","222","728","SW921581","SW 92108 58123","SW917574","180","42","ground on NW side of track","ground 50m SSW on N side of comms compound at SW 92089 58076 could be as high","Abney level","2016-12-23","","200","106","192105","58117","50.386089","-4.925875","E","",1,0,0,0,0,1,0,0,0,0,0,0,0,0,0,0,0,0,0,0,0,0,1,0,0,0,0,0,0,0,0,0,0,0,0,0,0,0,0,0,0,0,0,0,0,0,0,0,0,0,0,0,0,0,0,0
17610,"Morewelldown","40",2877,"2","204","669","SX456713","SX 45640 71362","SX436766","151","53","low mound in open pine forest","large level summit area","","2015-02-08","","201","108","245637","71356","50.521565","-4.178957","E","",1,0,0,0,0,1,0,0,0,0,0,0,0,0,0,0,0,0,0,0,0,0,1,0,0,0,0,0,0,0,0,0,0,0,0,0,0,0,0,0,0,0,0,0,0,0,0,0,0,0,0,0,0,0,0,0
17611,"Staddon Moor","40",2877,"2","205","673","SS683024","","SS671006","154","51","","","","2015-02-08","summit moved from SS675023 January 2015","191","113","268300","102400","50.806135","-3.870503","E","",1,0,0,0,0,1,0,0,0,0,0,0,0,0,0,0,0,0,0,0,0,0,1,0,0,0,0,0,0,0,0,0,0,0,0,0,0,0,0,0,0,0,0,0,0,0,0,0,0,0,0,0,0,0,0,0
17612,"Penvivian Downs","40",19290,"2","202","663","SX067632","SX 06707 63209","SX071621","135","67","no feature: scrub","large inclined boulder 30m SSW at SX 06695 63181 is probably higher but (ancient) man made; flat summit area","","2015-10-23","","200","107","206704","63203","50.436759","-4.723381","E","",1,0,0,0,0,1,0,0,0,0,0,0,0,0,0,0,0,0,0,0,0,0,1,0,0,0,0,0,0,0,0,0,0,0,0,0,0,0,0,0,0,0,0,0,0,0,0,0,0,0,0,0,0,0,0,0
17613,"Hollacombe Hill","40",2877,"2","202","663","SS386036","SS 38702 03618","SS366063","147","55","no feature: pasture","flat summit area","","2017-12-13","","190","112","238699","103612","50.809539","-4.290819","E","",1,0,0,0,0,1,0,0,0,0,0,0,0,0,0,0,0,0,0,0,0,0,1,0,0,0,0,0,0,0,0,0,0,0,0,0,0,0,0,0,0,0,0,0,0,0,0,0,0,0,0,0,0,0,0,0
17614,"Viverdon Down","40",2883,"2","202","663","SX381674","","SX376679","172","30","","","","2012-01-20","","201","108","238100","67400","50.483979","-4.283484","E","",1,0,0,0,0,1,0,0,0,0,0,0,0,0,0,0,0,0,0,0,0,0,1,0,0,0,0,0,0,0,0,0,0,0,0,0,0,0,0,0,0,0,0,0,0,0,0,0,0,0,0,0,0,0,0,0
17615,"Trencrom Hill","40",2887,"1","176","577","SW518362","SW 51806 36231","SW513364","129","47","rock tor","","Abney level","2015-02-14","","203","102","151803","36224","50.173939","-5.477431","E","",1,0,0,0,0,1,0,0,0,0,0,0,0,0,0,0,0,0,0,0,0,0,0,1,0,0,0,0,0,0,0,0,0,0,0,0,0,0,0,0,0,0,0,0,0,0,0,0,0,0,0,0,0,0,0,0
17616,"Bulkamore Hill","40",2877,"2","200","656","SX749629","","SX731624","162","38","","","","2012-01-20","","202","OL20E OL28S","274900","62900","50.452547","-3.763545","E","",1,0,0,0,0,1,0,0,0,0,0,0,0,0,0,0,0,0,0,0,0,0,1,0,0,0,0,0,0,0,0,0,0,0,0,0,0,0,0,0,0,0,0,0,0,0,0,0,0,0,0,0,0,0,0,0
17617,"Blackdown Camp","40",2877,"1","199","653","SX718521","","SX690560","137","62","","","","2012-01-20","","202","OL20E","271800","52100","50.354797","-3.803502","E","",1,0,0,0,0,1,0,0,0,0,0,0,0,0,0,0,0,0,0,0,0,0,0,1,0,0,0,0,0,0,0,0,0,0,0,0,0,0,0,0,0,0,0,0,0,0,0,0,0,0,0,0,0,0,0,0
17618,"Holne Chase","40",2877,"1","198","650","SX723716","","SX718709","148","50","","","","2012-01-20","","202","OL28S","272300","71600","50.530189","-3.803125","E","",1,0,0,0,0,1,0,0,0,0,0,0,0,0,0,0,0,0,0,0,0,0,0,1,0,0,0,0,0,0,0,0,0,0,0,0,0,0,0,0,0,0,0,0,0,0,0,0,0,0,0,0,0,0,0,0
17619,"Carn Brea","40",2887,"1","198","650","SW385280","SW 38595 28075","SW389283","168","30","ground by ruins","","","2014-03-21","","203","102","138592","28068","50.095054","-5.656476","E","",1,0,0,0,0,1,0,0,0,0,0,0,0,0,0,0,0,0,0,0,0,0,0,1,0,0,0,0,0,0,0,0,0,0,0,0,0,0,0,0,0,0,0,0,0,0,0,0,0,0,0,0,0,0,0,0
17620,"Higher Bury","40",2877,"1","197","646","SX797957","","SX785937","146","51","","","","2012-01-20","","191","OL28N 113","279700","95700","50.748392","-3.706595","E","",1,0,0,0,0,1,0,0,0,0,0,0,0,0,0,0,0,0,0,0,0,0,0,1,0,0,0,0,0,0,0,0,0,0,0,0,0,0,0,0,0,0,0,0,0,0,0,0,0,0,0,0,0,0,0,0
17621,"Bickleigh Brake","40",2877,"1","199","653","SX784535","","SX800529","161","38","","","","2014-11-11","moved from Blackawton Hill November 2014","202","OL20E","278400","53500","50.368783","-3.711220","E","",1,0,0,0,0,1,0,0,0,0,0,0,0,0,0,0,0,0,0,0,0,0,0,1,0,0,0,0,0,0,0,0,0,0,0,0,0,0,0,0,0,0,0,0,0,0,0,0,0,0,0,0,0,0,0,0
17622,"Home Gate Hill","40",2877,"1","197","646","SX824919","","SX829926","162","35","","","","2012-01-20","","191","114S","282400","91900","50.714788","-3.667126","E","",1,0,0,0,0,1,0,0,0,0,0,0,0,0,0,0,0,0,0,0,0,0,0,1,0,0,0,0,0,0,0,0,0,0,0,0,0,0,0,0,0,0,0,0,0,0,0,0,0,0,0,0,0,0,0,0
17623,"Cadford Moors","40",2877,"1","196","643","SS655084","","SS587111","151","45","","","","2012-01-20","","191","113","265500","108400","50.859417","-3.912422","E","",1,0,0,0,0,1,0,0,0,0,0,0,0,0,0,0,0,0,0,0,0,0,0,1,0,0,0,0,0,0,0,0,0,0,0,0,0,0,0,0,0,0,0,0,0,0,0,0,0,0,0,0,0,0,0,0
17624,"Bowdown Cross","40",2877,"1","196","643","SX725624","","SX714631","165","31","","","","2012-01-20","","202","OL20E OL28S","272500","62400","50.447536","-3.797165","E","",1,0,0,0,0,1,0,0,0,0,0,0,0,0,0,0,0,0,0,0,0,0,0,1,0,0,0,0,0,0,0,0,0,0,0,0,0,0,0,0,0,0,0,0,0,0,0,0,0,0,0,0,0,0,0,0
17625,"Thorne Moor","40",2877,"1","195","640","SS411162","","SS373181","156","39","","","","2015-02-08","ground 100m WSW of trig point likely to be highest position","180 190","126","241100","116200","50.923311","-4.262241","E","",1,0,0,0,0,1,0,0,0,0,0,0,0,0,0,0,0,0,0,0,0,0,0,1,0,0,0,0,0,0,0,0,0,0,0,0,0,0,0,0,0,0,0,0,0,0,0,0,0,0,0,0,0,0,0,0
17626,"Lee Downs","40",2877,"1","195","640","SX443841","","SX439848","156","39","","","","2012-01-20","","201","112","244300","84100","50.635734","-4.203146","E","",1,0,0,0,0,1,0,0,0,0,0,0,0,0,0,0,0,0,0,0,0,0,0,1,0,0,0,0,0,0,0,0,0,0,0,0,0,0,0,0,0,0,0,0,0,0,0,0,0,0,0,0,0,0,0,0
17627,"Truscott Hill","40",2881,"1","194","636","SX291859","","SX278863","118","76","","","","2015-02-14","","201","109 112","229100","85900","50.647646","-4.418730","E","",1,0,0,0,0,1,0,0,0,0,0,0,0,0,0,0,0,0,0,0,0,0,0,1,0,0,0,0,0,0,0,0,0,0,0,0,0,0,0,0,0,0,0,0,0,0,0,0,0,0,0,0,0,0,0,0
17628,"Penvivian Downs West Top","40",19290,"1","194","636","SX055630","SX 05590 63085","SX060631","159","35","no feature: ground near SW corner of pasture","ground 45m WSW at SX 05616 63049 in arable field might be as high or higher","","2016-12-04","","200","107","205587","63079","50.435276","-4.739027","E","",1,0,0,0,0,1,0,0,0,0,0,0,0,0,0,0,0,0,0,0,0,0,0,1,0,0,0,0,0,0,0,0,0,0,0,0,0,0,0,0,0,0,0,0,0,0,0,0,0,0,0,0,0,0,0,0
17629,"Holeland Hill","40",2877,"1","195","640","SX788910","","SX784921","154","41","","","","2015-02-08","alternative summit at SX791911","191","OL28N 113","278800","91000","50.705958","-3.717799","E","",1,0,0,0,0,1,0,0,0,0,0,0,0,0,0,0,0,0,0,0,0,0,0,1,0,0,0,0,0,0,0,0,0,0,0,0,0,0,0,0,0,0,0,0,0,0,0,0,0,0,0,0,0,0,0,0
17630,"St Agnes Beacon","40",2886,"1","192","630","SW710502","SW 71014 50222","SW724442","107","85","viewfinder column on grassy mound","","","2012-01-20","","203","104","171011","50215","50.307307","-5.217336","E","",1,0,0,0,0,1,0,0,0,0,0,0,0,0,0,0,0,0,0,0,0,0,0,1,0,0,0,0,0,0,0,0,0,0,0,0,0,0,0,0,0,0,0,0,0,0,0,0,0,0,0,0,0,0,0,0
17631,"Marley Thatch Hill","40",2877,"1","192","630","SX724601","SX 72410 60175","SX721607","144","48","no feature","","","2018-06-21","","202","OL20E OL28S","272407","60169","50.427462","-3.79771","E","",1,0,0,0,0,1,0,0,0,0,0,0,0,0,0,0,0,0,0,0,0,0,0,1,0,0,0,0,0,0,0,0,0,0,0,0,0,0,0,0,0,0,0,0,0,0,0,0,0,0,0,0,0,0,0,0
17632,"Ashleigh Hill","40",2877,"1","190","623","SX403837","","SX412828","144","46","","","","2015-02-08","","201","112","240300","83700","50.631057","-4.259493","E","",1,0,0,0,0,1,0,0,0,0,0,0,0,0,0,0,0,0,0,0,0,0,0,1,0,0,0,0,0,0,0,0,0,0,0,0,0,0,0,0,0,0,0,0,0,0,0,0,0,0,0,0,0,0,0,0
17633,"Chuley Hill","40",2877,"1","189","620","SX753682","SX 75364 68239","SX773710","117","72","trig point","disturbed ground (old hedgerow?) 8m to NE is of similar height","","2015-02-08","","202","OL28S","275361","68233","50.500584","-3.758829","E","",1,0,0,0,0,1,0,0,0,0,0,0,0,0,0,0,0,0,0,0,0,0,0,1,0,0,0,0,0,0,0,0,0,0,0,0,0,0,0,0,0,0,0,0,0,0,0,0,0,0,0,0,0,0,0,0
17634,"Chark Moor","40",19290,"1","189","620","SX088605","","SX072612","136","53","","","","2015-02-21","","200","107","208800","60500","50.413165","-4.692526","E","",1,0,0,0,0,1,0,0,0,0,0,0,0,0,0,0,0,0,0,0,0,0,0,1,0,0,0,0,0,0,0,0,0,0,0,0,0,0,0,0,0,0,0,0,0,0,0,0,0,0,0,0,0,0,0,0
17635,"Keason Hill","40",2881,"Un","187","614","SX311679","","SX307683","159","28","","","","2014-06-22","Tump deleted June 2014","201","108","231100","67900","50.486495","-4.382293","E","",1,0,0,0,0,0,0,0,0,0,0,0,0,0,0,0,0,0,0,0,0,0,0,0,0,0,0,0,0,0,0,0,0,0,0,0,0,0,0,0,0,0,0,0,0,0,0,0,0,0,0,0,0,1,0,0
17636,"Bigadon Hill","40",2877,"1","188","617","SX740650","SX 74015 65086","SX740641","134","54","no feature","fairly level summit area","","2015-02-09","","202","OL28S","274012","65080","50.471953","-3.776777","E","",1,0,0,0,0,1,0,0,0,0,0,0,0,0,0,0,0,0,0,0,0,0,0,1,0,0,0,0,0,0,0,0,0,0,0,0,0,0,0,0,0,0,0,0,0,0,0,0,0,0,0,0,0,0,0,0
17637,"Creek Beacon","40",2877,"1","187","614","SX775701","","SX765689","129","58","","","","2012-01-20","","202","OL28S","277500","70100","50.517819","-3.729298","E","",1,0,0,0,0,1,0,0,0,0,0,0,0,0,0,0,0,0,0,0,0,0,0,1,0,0,0,0,0,0,0,0,0,0,0,0,0,0,0,0,0,0,0,0,0,0,0,0,0,0,0,0,0,0,0,0
17638,"Ingsdon Hill","40",2877,"1","187","614","SX813733","","SX810733","137","50","","","","2015-02-08","","191","OL44 110","281300","73300","50.547368","-3.676740","E","",1,0,0,0,0,1,0,0,0,0,0,0,0,0,0,0,0,0,0,0,0,0,0,1,0,0,0,0,0,0,0,0,0,0,0,0,0,0,0,0,0,0,0,0,0,0,0,0,0,0,0,0,0,0,0,0
17639,"Penson Cross","40",2877,"1","187","614","SS652061","","SS634057","146","41","","","","2012-01-20","","191","113","265200","106100","50.838675","-3.915835","E","",1,0,0,0,0,1,0,0,0,0,0,0,0,0,0,0,0,0,0,0,0,0,0,1,0,0,0,0,0,0,0,0,0,0,0,0,0,0,0,0,0,0,0,0,0,0,0,0,0,0,0,0,0,0,0,0
17640,"Cudemoor","40",2877,"1","187","614","SS467145","","SS444142","149","38","","","","2012-01-20","","180 190","126","246700","114500","50.909551","-4.181911","E","",1,0,0,0,0,1,0,0,0,0,0,0,0,0,0,0,0,0,0,0,0,0,0,1,0,0,0,0,0,0,0,0,0,0,0,0,0,0,0,0,0,0,0,0,0,0,0,0,0,0,0,0,0,0,0,0
17641,"Hillersdon Wood","40",2885,"1","186","610","SS986079","SS 98627 07982","SS988063","146","40","tumulus in open woodland","","","2012-01-20","","192","114N","298624","107976","50.86237","-3.441836","E","",1,0,0,0,0,1,0,0,0,0,0,0,0,0,0,0,0,0,0,0,0,0,0,1,0,0,0,0,0,0,0,0,0,0,0,0,0,0,0,0,0,0,0,0,0,0,0,0,0,0,0,0,0,0,0,0
17642,"Diptford Downs","40",2877,"1","185","607","SX729579","SX 72961 57995","SX741559","132","53","no feature","levellish pasture","Abney level","2015-03-27","","202","OL20E OL28S","272958","57989","50.407985","-3.789218","E","",1,0,0,0,0,1,0,0,0,0,0,0,0,0,0,0,0,0,0,0,0,0,0,1,0,0,0,0,0,0,0,0,0,0,0,0,0,0,0,0,0,0,0,0,0,0,0,0,0,0,0,0,0,0,0,0
17643,"Larrick Hill","40",2881,"1","185","607","SX313785","SX 31392 78526","SX309801","136","49","no feature","","","2015-02-14","","201","112","231389","78520","50.582003","-4.383023","E","",1,0,0,0,0,1,0,0,0,0,0,0,0,0,0,0,0,0,0,0,0,0,0,1,0,0,0,0,0,0,0,0,0,0,0,0,0,0,0,0,0,0,0,0,0,0,0,0,0,0,0,0,0,0,0,0
17644,"Fowlescombe Hill","40",2877,"1","183","600","SX693554","","SX704529","136","47","","","","2015-02-09","","202","OL20W OL28S","269300","55400","50.383910","-3.839773","E","",1,0,0,0,0,1,0,0,0,0,0,0,0,0,0,0,0,0,0,0,0,0,0,1,0,0,0,0,0,0,0,0,0,0,0,0,0,0,0,0,0,0,0,0,0,0,0,0,0,0,0,0,0,0,0,0
17645,"Long Downs","40",2881,"1","185","607","SX112669","SX 11287 66987","SX133677","151","34","no feature: ground on bend in track","","","2012-01-20","","200","107 109","211284","66981","50.47219","-4.660863","E","",1,0,0,0,0,1,0,0,0,0,0,0,0,0,0,0,0,0,0,0,0,0,0,1,0,0,0,0,0,0,0,0,0,0,0,0,0,0,0,0,0,0,0,0,0,0,0,0,0,0,0,0,0,0,0,0
17646,"Denzell Downs","40",19290,"1","185","607","SW901672","","SW922672","154","31","","","","2012-01-20","","200","106","190100","67200","50.466955","-4.959127","E","",1,0,0,0,0,1,0,0,0,0,0,0,0,0,0,0,0,0,0,0,0,0,0,1,0,0,0,0,0,0,0,0,0,0,0,0,0,0,0,0,0,0,0,0,0,0,0,0,0,0,0,0,0,0,0,0
17647,"Hustyn Downs","40",19290,"1","184","604","SX000680","","SW988673","153","31","","","","2012-01-20","","200","106","200000","68000","50.477602","-4.820234","E","",1,0,0,0,0,1,0,0,0,0,0,0,0,0,0,0,0,0,0,0,0,0,0,1,0,0,0,0,0,0,0,0,0,0,0,0,0,0,0,0,0,0,0,0,0,0,0,0,0,0,0,0,0,0,0,0
17648,"Henacroft Hill","40",2877,"1","184","604","SS593089","","SS609091","154","30","","","","2014-08-07","","191","113","259300","108900","50.862434","-4.000652","E","",1,0,0,0,0,1,0,0,0,0,0,0,0,0,0,0,0,0,0,0,0,0,0,1,0,0,0,0,0,0,0,0,0,0,0,0,0,0,0,0,0,0,0,0,0,0,0,0,0,0,0,0,0,0,0,0
17649,"Coombe Hill","40",2877,"1","184","604","SX787484","","SX777498","136","48","","","","2015-02-09","","202","OL20E","278700","48400","50.322999","-3.705361","E","",1,0,0,0,0,1,0,0,0,0,0,0,0,0,0,0,0,0,0,0,0,0,0,1,0,0,0,0,0,0,0,0,0,0,0,0,0,0,0,0,0,0,0,0,0,0,0,0,0,0,0,0,0,0,0,0
17650,"Serstone Hill","40",2877,"1","182","597","SS734028","","SS738015","122","60","","","","2012-01-20","","191","113","273400","102800","50.810868","-3.798299","E","",1,0,0,0,0,1,0,0,0,0,0,0,0,0,0,0,0,0,0,0,0,0,0,1,0,0,0,0,0,0,0,0,0,0,0,0,0,0,0,0,0,0,0,0,0,0,0,0,0,0,0,0,0,0,0,0
17651,"Clubworthy Hill","40",2881,"1","182","597","SX270930","SX 27077 93063","SX211951","132","50","ground by trig point","trig point is on plinth and is badly damaged","","2015-02-14","","190","111","227074","93057","50.711352","-4.450705","E","",1,0,0,0,0,1,0,0,0,0,0,0,0,0,0,0,0,0,0,0,0,0,0,1,0,0,0,0,0,0,0,0,0,0,0,0,0,0,0,0,0,0,0,0,0,0,0,0,0,0,0,0,0,0,0,0
17652,"Yondhill","40",2877,"1","181","594","SS641015","","SS640000","151","30","","","","2014-08-07","","191","113","264100","101500","50.797076","-3.929742","E","",1,0,0,0,0,1,0,0,0,0,0,0,0,0,0,0,0,0,0,0,0,0,0,1,0,0,0,0,0,0,0,0,0,0,0,0,0,0,0,0,0,0,0,0,0,0,0,0,0,0,0,0,0,0,0,0
17653,"Gunoak Hill","40",2883,"1","180","591","SX379765","","SX359748","143","37","","","","2015-02-21","","201","108","237900","76500","50.565696","-4.290257","E","",1,0,0,0,0,1,0,0,0,0,0,0,0,0,0,0,0,0,0,0,0,0,0,1,0,0,0,0,0,0,0,0,0,0,0,0,0,0,0,0,0,0,0,0,0,0,0,0,0,0,0,0,0,0,0,0
17654,"Peppercombe Hill","40",2877,"Un","180","591","SS376236","","SS367230","151","29","","","","2014-02-14","Deleted from Tumps list Feb 2014","190","126","237600","123600","50.988826","-4.315300","E","",1,0,0,0,0,0,0,0,0,0,0,0,0,0,0,0,0,0,0,0,0,0,0,0,0,0,0,0,0,0,0,0,0,0,0,0,0,0,0,0,0,0,0,0,0,0,0,0,0,0,0,0,0,1,0,0
17655,"Launceston Hill","40",2881,"1","178","584","SX333841","SX 33348 84133","SX325837","137","41","ground near bandstand","","","2016-03-13","","201","112","233345","84127","50.632946","-4.357937","E","",1,0,0,0,0,1,0,0,0,0,0,0,0,0,0,0,0,0,0,0,0,0,0,1,0,0,0,0,0,0,0,0,0,0,0,0,0,0,0,0,0,0,0,0,0,0,0,0,0,0,0,0,0,0,0,0
17656,"Haccombe Cross","40",2877,"1","178","584","SX901690","SX 90173 69017","SX906685","148","30","gateway","","","2012-01-20","","202","OL44 110","290170","69011","50.510545","-3.550328","E","",1,0,0,0,0,1,0,0,0,0,0,0,0,0,0,0,0,0,0,0,0,0,0,1,0,0,0,0,0,0,0,0,0,0,0,0,0,0,0,0,0,0,0,0,0,0,0,0,0,0,0,0,0,0,0,0
17657,"Cutwellcombe Hill","40",2877,"1","177","581","SX693581","SX 69382 58127","SX683577","147","30","no feature: pasture","","Abney level","2015-02-14","","202","OL20W OL28S","269379","58121","50.408386","-3.839604","E","",1,0,0,0,0,1,0,0,0,0,0,0,0,0,0,0,0,0,0,0,0,0,0,1,0,0,0,0,0,0,0,0,0,0,0,0,0,0,0,0,0,0,0,0,0,0,0,0,0,0,0,0,0,0,0,0
17658,"Beacon's Down","40",2877,"1","176","577","SS487046","","SS479041","142","34","","","","2014-10-30","","191","112","248700","104600","50.821115","-4.149387","E","",1,0,0,0,0,1,0,0,0,0,0,0,0,0,0,0,0,0,0,0,0,0,0,1,0,0,0,0,0,0,0,0,0,0,0,0,0,0,0,0,0,0,0,0,0,0,0,0,0,0,0,0,0,0,0,0
17659,"Stert Hill","40",2877,"1","173","568","SX739568","SX 73948 56833","SX736573","138","35","no feature","levellish pasture","","2012-01-20","","202","OL20E OL28S","273945","56827","50.397753","-3.774944","E","",1,0,0,0,0,1,0,0,0,0,0,0,0,0,0,0,0,0,0,0,0,0,0,1,0,0,0,0,0,0,0,0,0,0,0,0,0,0,0,0,0,0,0,0,0,0,0,0,0,0,0,0,0,0,0,0
17660,"Grey Mare Hill","40",2881,"Un","173","568","SX125640","","SX153633","144","29","","","","2014-04-07","Tump deleted April 2014","200","107 109","212500","64000","50.445800","-4.642257","E","",1,0,0,0,0,0,0,0,0,0,0,0,0,0,0,0,0,0,0,0,0,0,0,0,0,0,0,0,0,0,0,0,0,0,0,0,0,0,0,0,0,0,0,0,0,0,0,0,0,0,0,0,0,1,0,0
17661,"High Down","40",2877,"1","173","568","SS280252","SS 28085 25287","SS284249","143","30","ground on road just NW of gateways","","Seco 2x Hand Level","2014-08-07","","190","126","228082","125281","51.001166","-4.451582","E","",1,0,0,0,0,1,0,0,0,0,0,0,0,0,0,0,0,0,0,0,0,0,0,1,0,0,0,0,0,0,0,0,0,0,0,0,0,0,0,0,0,0,0,0,0,0,0,0,0,0,0,0,0,0,0,0
17662,"Landscove Hill","40",2877,"1","171","561","SX768674","SX 76875 67431","SX764680","117","54","no feature","flat summit area","","2012-01-20","","202","OL28S","276872","67425","50.493641","-3.737267","E","",1,0,0,0,0,1,0,0,0,0,0,0,0,0,0,0,0,0,0,0,0,0,0,1,0,0,0,0,0,0,0,0,0,0,0,0,0,0,0,0,0,0,0,0,0,0,0,0,0,0,0,0,0,0,0,0
17663,"Cross Hill","40",2881,"1","171","561","SX145662","","SX146668","136","35","","","","2012-01-20","","200","107 109","214500","66200","50.466201","-4.615209","E","",1,0,0,0,0,1,0,0,0,0,0,0,0,0,0,0,0,0,0,0,0,0,0,1,0,0,0,0,0,0,0,0,0,0,0,0,0,0,0,0,0,0,0,0,0,0,0,0,0,0,0,0,0,0,0,0
17664,"Brightmans Hill","40",2877,"1","171","561","SS488102","","SS483109","138","33","","","","2012-01-20","","191","126","248800","110200","50.871464","-4.150282","E","",1,0,0,0,0,1,0,0,0,0,0,0,0,0,0,0,0,0,0,0,0,0,0,1,0,0,0,0,0,0,0,0,0,0,0,0,0,0,0,0,0,0,0,0,0,0,0,0,0,0,0,0,0,0,0,0
17665,"Knowle Wood","40",2877,"1","171","561","SX793809","","SX799812","141","30","","","","2012-01-20","","191","OL28N OL44 110","279300","80900","50.615275","-3.707425","E","",1,0,0,0,0,1,0,0,0,0,0,0,0,0,0,0,0,0,0,0,0,0,0,1,0,0,0,0,0,0,0,0,0,0,0,0,0,0,0,0,0,0,0,0,0,0,0,0,0,0,0,0,0,0,0,0
17666,"Trelyon Downs [Knill's Monument]","40",2887,"1","170","558","SW516386","SW 51634 38672","SW507380","133","37","ground at base of monument","","","2012-01-20","","203","102","151631","38665","50.19578","-5.48143","E","",1,0,0,0,0,1,0,0,0,0,0,0,0,0,0,0,0,0,0,0,0,0,0,1,0,0,0,0,0,0,0,0,0,0,0,0,0,0,0,0,0,0,0,0,0,0,0,0,0,0,0,0,0,0,0,0
17667,"Torrington Hill","40",2877,"1","170","558","SS496159","","SS487146","137","33","","","","2012-01-20","","180","126","249600","115900","50.922894","-4.141269","E","",1,0,0,0,0,1,0,0,0,0,0,0,0,0,0,0,0,0,0,0,0,0,0,1,0,0,0,0,0,0,0,0,0,0,0,0,0,0,0,0,0,0,0,0,0,0,0,0,0,0,0,0,0,0,0,0
17668,"Walreddon Hill","40",2877,"1","170","558","SX484716","","SX493715","138","32","","","","2014-08-07","","201","OL28S 108","248400","71600","50.524480","-4.140112","E","",1,0,0,0,0,1,0,0,0,0,0,0,0,0,0,0,0,0,0,0,0,0,0,1,0,0,0,0,0,0,0,0,0,0,0,0,0,0,0,0,0,0,0,0,0,0,0,0,0,0,0,0,0,0,0,0
17669,"The Beacon","40",2877,"1","169","554","SX931709","","SX923686","94","75","","","","2012-01-20","","202","OL44 110","293100","70900","50.528070","-3.509565","E","",1,0,0,0,0,1,0,0,0,0,0,0,0,0,0,0,0,0,0,0,0,0,0,1,0,0,0,0,0,0,0,0,0,0,0,0,0,0,0,0,0,0,0,0,0,0,0,0,0,0,0,0,0,0,0,0
17670,"Killigorrick Hill","40",2881,"1","168","551","SX229615","","SX220645","120","48","","","","2012-01-20","","201","107","222900","61500","50.426571","-4.494745","E","",1,0,0,0,0,1,0,0,0,0,0,0,0,0,0,0,0,0,0,0,0,0,0,1,0,0,0,0,0,0,0,0,0,0,0,0,0,0,0,0,0,0,0,0,0,0,0,0,0,0,0,0,0,0,0,0
17671,"Trescoll Hill","40",19290,"1","169","554","SX031619","SX 03132 61934","SX018627","133","36","no feature: pasture","","","2017-05-28","","200","107","203129","61928","50.424118","-4.772993","E","",1,0,0,0,0,1,0,0,0,0,0,0,0,0,0,0,0,0,0,0,0,0,0,1,0,0,0,0,0,0,0,0,0,0,0,0,0,0,0,0,0,0,0,0,0,0,0,0,0,0,0,0,0,0,0,0
17672,"Dartmouth Hill","40",2877,"1","167","548","SX871506","SX 87195 50609","SX848515","133","34","no feature: grass","flattish summit area","Abney level","2014-06-22","","202","OL20E","287192","50603","50.344493","-3.58677","E","",1,0,0,0,0,1,0,0,0,0,0,0,0,0,0,0,0,0,0,0,0,0,0,1,0,0,0,0,0,0,0,0,0,0,0,0,0,0,0,0,0,0,0,0,0,0,0,0,0,0,0,0,0,0,0,0
17673,"Windmill Hill","40",2877,"1","166","545","SX853594","","SX849601","94","72","","","","2012-01-20","","202","OL20E","285300","59400","50.423210","-3.616040","E","",1,0,0,0,0,1,0,0,0,0,0,0,0,0,0,0,0,0,0,0,0,0,0,1,0,0,0,0,0,0,0,0,0,0,0,0,0,0,0,0,0,0,0,0,0,0,0,0,0,0,0,0,0,0,0,0
17674,"Baron's Hill","40",2877,"1","166","545","SX709573","SX 70910 57331","SX704573","126","40","no feature","summit is ground beside hedge near high pressure gas marker post","","2018-02-04","","202","OL20E OL28S","270907","57325","50.401569","-3.817838","E","",1,0,0,0,0,1,0,0,0,0,0,0,0,0,0,0,0,0,0,0,0,0,0,1,0,0,0,0,0,0,0,0,0,0,0,0,0,0,0,0,0,0,0,0,0,0,0,0,0,0,0,0,0,0,0,0
17675,"Beardon Hill","40",2877,"1","165","541","SX854840","SX 85445 84042","SX859840","102","63","no feature: pasture","","","2012-01-20","","191","OL44 110","285442","84036","50.644705","-3.621614","E","",1,0,0,0,0,1,0,0,0,0,0,0,0,0,0,0,0,0,0,0,0,0,0,1,0,0,0,0,0,0,0,0,0,0,0,0,0,0,0,0,0,0,0,0,0,0,0,0,0,0,0,0,0,0,0,0
17676,"Walson Hill","40",2877,"1","165","541","SS738007","","SS731000","133","32","","","","2015-03-27","","191","113","273800","100700","50.792080","-3.791901","E","",1,0,0,0,0,1,0,0,0,0,0,0,0,0,0,0,0,0,0,0,0,0,0,1,0,0,0,0,0,0,0,0,0,0,0,0,0,0,0,0,0,0,0,0,0,0,0,0,0,0,0,0,0,0,0,0
17677,"Goodstone Hill","40",2877,"1","165","541","SX791718","SX 79156 71882","SX788720","126","39","no feature","","","2012-01-20","","202","OL44 110","279153","71876","50.534127","-3.706565","E","",1,0,0,0,0,1,0,0,0,0,0,0,0,0,0,0,0,0,0,0,0,0,0,1,0,0,0,0,0,0,0,0,0,0,0,0,0,0,0,0,0,0,0,0,0,0,0,0,0,0,0,0,0,0,0,0
17678,"Bynorth Cliff","40",2881,"1","164","538","SX167989","","SX168981","133","31","","","","2012-01-20","","190","111","216700","98900","50.760662","-4.600396","E","",1,0,0,0,0,1,0,0,0,0,0,0,0,0,0,0,0,0,0,0,0,0,0,1,0,0,0,0,0,0,0,0,0,0,0,0,0,0,0,0,0,0,0,0,0,0,0,0,0,0,0,0,0,0,0,0
17679,"Copperthorn Cross","40",2877,"1","163","535","SX774594","","SX751604","86","77","","","","2012-01-20","","202","OL20E OL28S","277400","59400","50.421613","-3.727201","E","",1,0,0,0,0,1,0,0,0,0,0,0,0,0,0,0,0,0,0,0,0,0,0,1,0,0,0,0,0,0,0,0,0,0,0,0,0,0,0,0,0,0,0,0,0,0,0,0,0,0,0,0,0,0,0,0
17680,"Posbury Clump","40",2877,"1","163","535","SX814978","SX 81443 97850","SX812976","126","37","embedded rock on rim of quarry","","","2012-01-20","","191","114S","281440","97844","50.768024","-3.682629","E","",1,0,0,0,0,1,0,0,0,0,0,0,0,0,0,0,0,0,0,0,0,0,0,1,0,0,0,0,0,0,0,0,0,0,0,0,0,0,0,0,0,0,0,0,0,0,0,0,0,0,0,0,0,0,0,0
17681,"Coleton Hill","40",2877,"1","162","531","SX904509","","SX897527","116","46","","","","2015-02-08","","202","OL20E","290400","50900","50.347769","-3.541792","E","",1,0,0,0,0,1,0,0,0,0,0,0,0,0,0,0,0,0,0,0,0,0,0,1,0,0,0,0,0,0,0,0,0,0,0,0,0,0,0,0,0,0,0,0,0,0,0,0,0,0,0,0,0,0,0,0
17682,"The Beacon","40",2881,"1","162","531","SX067663","","SX073663","117","45","","","","2012-01-20","","200","107 109","206700","66300","50.464579","-4.725039","E","",1,0,0,0,0,1,0,0,0,0,0,0,0,0,0,0,0,0,0,0,0,0,0,1,0,0,0,0,0,0,0,0,0,0,0,0,0,0,0,0,0,0,0,0,0,0,0,0,0,0,0,0,0,0,0,0
17683,"Godolphin Hill","40",2886,"1","162","531","SW592312","SW 59227 31284","SW594306","124","38","northernmost of two boulders","","","2012-01-20","","203","102","159224","31277","50.132587","-5.370563","E","",1,0,0,0,0,1,0,0,0,0,0,0,0,0,0,0,0,0,0,0,0,0,0,1,0,0,0,0,0,0,0,0,0,0,0,0,0,0,0,0,0,0,0,0,0,0,0,0,0,0,0,0,0,0,0,0
17684,"Ashburton Hill","40",2877,"1","161","528","SX750698","","SX749702","109","52","","","","2012-01-20","","202","OL28S","275000","69800","50.514593","-3.764445","E","",1,0,0,0,0,1,0,0,0,0,0,0,0,0,0,0,0,0,0,0,0,0,0,1,0,0,0,0,0,0,0,0,0,0,0,0,0,0,0,0,0,0,0,0,0,0,0,0,0,0,0,0,0,0,0,0
17685,"Pencreege Hill","40",2881,"1","161","528","SX048779","","SX043784","112","49","","","","2012-01-20","","200","109","204800","77900","50.568149","-4.757847","E","",1,0,0,0,0,1,0,0,0,0,0,0,0,0,0,0,0,0,0,0,0,0,0,1,0,0,0,0,0,0,0,0,0,0,0,0,0,0,0,0,0,0,0,0,0,0,0,0,0,0,0,0,0,0,0,0
17686,"Quarry Cross","40",2877,"1","161","528","SX456670","SX 45658 67024","SX461685","112","49","no feature: ground by hedgeline","","","2012-01-20","","201","108","245655","67018","50.482586","-4.17691","E","",1,0,0,0,0,1,0,0,0,0,0,0,0,0,0,0,0,0,0,0,0,0,0,1,0,0,0,0,0,0,0,0,0,0,0,0,0,0,0,0,0,0,0,0,0,0,0,0,0,0,0,0,0,0,0,0
17687,"South Hill","40",2877,"1","161","528","SX813952","","SX813944","118","43","","","","2012-01-20","","191","114S","281300","95200","50.744227","-3.683764","E","",1,0,0,0,0,1,0,0,0,0,0,0,0,0,0,0,0,0,0,0,0,0,0,1,0,0,0,0,0,0,0,0,0,0,0,0,0,0,0,0,0,0,0,0,0,0,0,0,0,0,0,0,0,0,0,0
17688,"Burlestone Hill","40",2877,"1","161","528","SX831489","","SX828494","129","32","","","","2012-01-20","","202","OL20E","283100","48900","50.328384","-3.643731","E","",1,0,0,0,0,1,0,0,0,0,0,0,0,0,0,0,0,0,0,0,0,0,0,1,0,0,0,0,0,0,0,0,0,0,0,0,0,0,0,0,0,0,0,0,0,0,0,0,0,0,0,0,0,0,0,0
17689,"Reedy Hill","40",2877,"1","160","525","SX827890","","SX828894","129","31","","","","2012-01-20","","191","OL44 110 114S","282700","89000","50.688780","-3.661957","E","",1,0,0,0,0,1,0,0,0,0,0,0,0,0,0,0,0,0,0,0,0,0,0,1,0,0,0,0,0,0,0,0,0,0,0,0,0,0,0,0,0,0,0,0,0,0,0,0,0,0,0,0,0,0,0,0
17690,"Denbury Down","40",2877,"1","159","522","SX816685","SX 81643 68524","SX845668","83","76","tumulus","","Abney level","2015-03-27","","202","OL44 110","281640","68518","50.50445","-3.670422","E","",1,0,0,0,0,1,0,0,0,0,0,0,0,0,0,0,0,0,0,0,0,0,0,1,0,0,0,0,0,0,0,0,0,0,0,0,0,0,0,0,0,0,0,0,0,0,0,0,0,0,0,0,0,0,0,0
17691,"Gabwell Hill","40",2877,"1","159","522","SX925698","SX 92583 69831","SX929700","121","38","no feature: ground on unmade road","","","2015-02-08","","202","OL44 110","292580","69825","50.518311","-3.516586","E","",1,0,0,0,0,1,0,0,0,0,0,0,0,0,0,0,0,0,0,0,0,0,0,1,0,0,0,0,0,0,0,0,0,0,0,0,0,0,0,0,0,0,0,0,0,0,0,0,0,0,0,0,0,0,0,0
17692,"Windmill Hill","40",2877,"1","159","522","SX871623","SX 87143 62314","SX864624","125","34","no feature: grass","W side of hedge","Abney level","2018-06-21","","202","OL20E OL44 110","287140","62308","50.44971","-3.59102","E","",1,0,0,0,0,1,0,0,0,0,0,0,0,0,0,0,0,0,0,0,0,0,0,1,0,0,0,0,0,0,0,0,0,0,0,0,0,0,0,0,0,0,0,0,0,0,0,0,0,0,0,0,0,0,0,0
17693,"Highbury Hill","40",2881,"1","159","522","SX265996","SX 26503 99666","SX266992","129","30","no feature","ground 50m W at SX 26451 99675 may be as high; flat summit area","","2017-12-13","","190","111","226500","99660","50.770506","-4.461937","E","",1,0,0,0,0,1,0,0,0,0,0,0,0,0,0,0,0,0,0,0,0,0,0,1,0,0,0,0,0,0,0,0,0,0,0,0,0,0,0,0,0,0,0,0,0,0,0,0,0,0,0,0,0,0,0,0
17694,"Helligan Hill","40",2881,"1","157","515","SX078724","","SX076753","116","41","","","","2015-02-14","","200","109","207800","72400","50.519737","-4.712696","E","",1,0,0,0,0,1,0,0,0,0,0,0,0,0,0,0,0,0,0,0,0,0,0,1,0,0,0,0,0,0,0,0,0,0,0,0,0,0,0,0,0,0,0,0,0,0,0,0,0,0,0,0,0,0,0,0
17695,"Embury Beacon","40",2877,"1","157","515","SS216194","SS 21627 19425","SS216199","123","34","grassy bank","probably covers natural high point","","2012-01-20","","190","126","221624","119419","50.946538","-4.540651","E","",1,0,0,0,0,1,0,0,0,0,0,0,0,0,0,0,0,0,0,0,0,0,0,1,0,0,0,0,0,0,0,0,0,0,0,0,0,0,0,0,0,0,0,0,0,0,0,0,0,0,0,0,0,0,0,0
17696,"Treskilling Downs","40",19290,"1","160","525","SX040569","SX 04088 56925","SX036570","128","32","grass W side of path","hummocky area with no obvious high point","Seco 2x Hand Level","2016-12-23","Top is landscaped spoil heap. Relocated from SX037577 December 2016. Alternative 160m summit at SX039572.","200","107","204085","56919","50.379442","-4.756937","E","",1,0,0,0,0,1,0,0,0,0,0,0,0,0,0,0,0,0,0,0,0,0,0,1,0,0,0,0,0,0,0,0,0,0,0,0,0,0,0,0,0,0,0,0,0,0,0,0,0,0,0,0,0,0,0,0
17697,"Kite's Nest Hill","40",2881,"1","157","515","SX180536","SX 18038 53630","SX193554","122","35","no feature: grass field","nearby man-made earth field banks are higher","","2018-04-22","summit moved from SX178519 October 2014","201","107","218035","53624","50.354322","-4.559349","E","",1,0,0,0,0,1,0,0,0,0,0,0,0,0,0,0,0,0,0,0,0,0,0,1,0,0,0,0,0,0,0,0,0,0,0,0,0,0,0,0,0,0,0,0,0,0,0,0,0,0,0,0,0,0,0,0
17698,"Tregole Hill","40",2881,"1","156","512","SX194974","SX 19414 97498","SX195967","126","30","no feature: pasture E side of road","","Abney level","2012-01-20","","190","111","219411","97492","50.748864","-4.561305","E","",1,0,0,0,0,1,0,0,0,0,0,0,0,0,0,0,0,0,0,0,0,0,0,1,0,0,0,0,0,0,0,0,0,0,0,0,0,0,0,0,0,0,0,0,0,0,0,0,0,0,0,0,0,0,0,0
17699,"Edgerley Cross","40",2877,"1","155","509","SS721066","SS 72161 06631","SS717060","108","47","no feature: ground between barn & gate","","","2012-01-20","","191","113","272158","106625","50.844977","-3.817248","E","",1,0,0,0,0,1,0,0,0,0,0,0,0,0,0,0,0,0,0,0,0,0,0,1,0,0,0,0,0,0,0,0,0,0,0,0,0,0,0,0,0,0,0,0,0,0,0,0,0,0,0,0,0,0,0,0
17700,"Hurlingbarrow Hill","40",2886,"1","155","509","SW727483","","SW717496","118","37","","","","2012-01-20","","204","104","172700","48300","50.290760","-5.192502","E","",1,0,0,0,0,1,0,0,0,0,0,0,0,0,0,0,0,0,0,0,0,0,0,1,0,0,0,0,0,0,0,0,0,0,0,0,0,0,0,0,0,0,0,0,0,0,0,0,0,0,0,0,0,0,0,0
17701,"Penhale Hill","40",2881,"1","155","509","SX287548","","SX275568","123","32","","","","2012-01-20","","201","107","228700","54800","50.368090","-4.410107","E","",1,0,0,0,0,1,0,0,0,0,0,0,0,0,0,0,0,0,0,0,0,0,0,1,0,0,0,0,0,0,0,0,0,0,0,0,0,0,0,0,0,0,0,0,0,0,0,0,0,0,0,0,0,0,0,0
17702,"Hawson Court","40",2877,"1","154","505","SX715681","","SX710681","122","32","","","","2012-01-20","","202","OL28S","271500","68100","50.498553","-3.813201","E","",1,0,0,0,0,1,0,0,0,0,0,0,0,0,0,0,0,0,0,0,0,0,0,1,0,0,0,0,0,0,0,0,0,0,0,0,0,0,0,0,0,0,0,0,0,0,0,0,0,0,0,0,0,0,0,0
17703,"Trewoodgate Hill","40",2881,"1","153","502","SX328642","SX 32874 64225","SX325651","121","32","no feature","","","2012-01-20","","201","108","232871","64219","50.453927","-4.3557","E","",1,0,0,0,0,1,0,0,0,0,0,0,0,0,0,0,0,0,0,0,0,0,0,1,0,0,0,0,0,0,0,0,0,0,0,0,0,0,0,0,0,0,0,0,0,0,0,0,0,0,0,0,0,0,0,0
17704,"Combe Park","40",2877,"1","152","499","SX799716","","SX794717","108","44","","","","2012-01-20","","202","OL44 110","279900","71600","50.531800","-3.695943","E","",1,0,0,0,0,1,0,0,0,0,0,0,0,0,0,0,0,0,0,0,0,0,0,1,0,0,0,0,0,0,0,0,0,0,0,0,0,0,0,0,0,0,0,0,0,0,0,0,0,0,0,0,0,0,0,0
17705,"Trillacott Hill","40",2881,"1","152","499","SX265898","","SX270908","119","33","","","","2014-10-30","","190","111","226500","89800","50.681917","-4.457300","E","",1,0,0,0,0,1,0,0,0,0,0,0,0,0,0,0,0,0,0,0,0,0,0,1,0,0,0,0,0,0,0,0,0,0,0,0,0,0,0,0,0,0,0,0,0,0,0,0,0,0,0,0,0,0,0,0
17706,"Potheridge Hill","40",2877,"Un","151","495","SS528136","","SS512141","122","29","","","","2014-08-07","Deleted Tump August 2014","180","127","252800","113600","50.903052","-4.094844","E","",1,0,0,0,0,0,0,0,0,0,0,0,0,0,0,0,0,0,0,0,0,0,0,0,0,0,0,0,0,0,0,0,0,0,0,0,0,0,0,0,0,0,0,0,0,0,0,0,0,0,0,0,0,1,0,0
17707,"Raddon Wood","40",2877,"Un","152","499","SX453848","","SX450851","124","28","","","","2014-02-14","Deleted from Tumps list Feb 2014","201","112","245300","84800","50.642291","-4.189308","E","",1,0,0,0,0,0,0,0,0,0,0,0,0,0,0,0,0,0,0,0,0,0,0,0,0,0,0,0,0,0,0,0,0,0,0,0,0,0,0,0,0,0,0,0,0,0,0,0,0,0,0,0,0,1,0,0
17708,"Narkurs Hill","40",2881,"1","151","495","SX328554","","SX315603","81","70","","","","2012-01-20","","201","108","232800","55400","50.374661","-4.352774","E","",1,0,0,0,0,1,0,0,0,0,0,0,0,0,0,0,0,0,0,0,0,0,0,1,0,0,0,0,0,0,0,0,0,0,0,0,0,0,0,0,0,0,0,0,0,0,0,0,0,0,0,0,0,0,0,0
17709,"Pencarrow Hill","40",2881,"1","151","495","SX043698","","SX056716","99","52","","","","2012-01-20","","200","109","204300","69800","50.495223","-4.760647","E","",1,0,0,0,0,1,0,0,0,0,0,0,0,0,0,0,0,0,0,0,0,0,0,1,0,0,0,0,0,0,0,0,0,0,0,0,0,0,0,0,0,0,0,0,0,0,0,0,0,0,0,0,0,0,0,0
17710,"Down St Mary","40",2877,"1","150","492","SS744045","SS 74494 04521","SS769027","109","41","no feature","","","2017-03-07","","191","113","274491","104515","50.826523","-3.783404","E","",1,0,0,0,0,1,0,0,0,0,0,0,0,0,0,0,0,0,0,0,0,0,0,1,0,0,0,0,0,0,0,0,0,0,0,0,0,0,0,0,0,0,0,0,0,0,0,0,0,0,0,0,0,0,0,0
17711,"Brixham Hill","40",2877,"1","150","492","SX913542","","SX908540","109","41","","","","2012-01-20","","202","OL20E","291300","54200","50.377604","-3.530100","E","",1,0,0,0,0,1,0,0,0,0,0,0,0,0,0,0,0,0,0,0,0,0,0,1,0,0,0,0,0,0,0,0,0,0,0,0,0,0,0,0,0,0,0,0,0,0,0,0,0,0,0,0,0,0,0,0
17712,"Gammaton Moor","40",2877,"1","150","492","SS491247","","SS505253","117","33","","","","2014-11-11","","180","126 139","249100","124700","51.001841","-4.152031","E","",1,0,0,0,0,1,0,0,0,0,0,0,0,0,0,0,0,0,0,0,0,0,0,1,0,0,0,0,0,0,0,0,0,0,0,0,0,0,0,0,0,0,0,0,0,0,0,0,0,0,0,0,0,0,0,0
17713,"Carland Cross Hill","40",19290,"1","149","489","SW843537","","SW900572","92","57","","","","2012-01-20","Alternative summit at SW844542","200 204","106","184300","53700","50.343612","-5.032982","E","",1,0,0,0,0,1,0,0,0,0,0,0,0,0,0,0,0,0,0,0,0,0,0,1,0,0,0,0,0,0,0,0,0,0,0,0,0,0,0,0,0,0,0,0,0,0,0,0,0,0,0,0,0,0,0,0
17714,"Hazard Hill","40",2877,"1","149","489","SX755593","","SX750596","107","42","","","","2015-02-14","","202","OL20E OL28S","275500","59300","50.420314","-3.753902","E","",1,0,0,0,0,1,0,0,0,0,0,0,0,0,0,0,0,0,0,0,0,0,0,1,0,0,0,0,0,0,0,0,0,0,0,0,0,0,0,0,0,0,0,0,0,0,0,0,0,0,0,0,0,0,0,0
17715,"Hexworthy Hill","40",2881,"1","148","486","SX355812","","SX351818","107","41","","","","2012-01-20","","201","112","235500","81200","50.607257","-4.326197","E","",1,0,0,0,0,1,0,0,0,0,0,0,0,0,0,0,0,0,0,0,0,0,0,1,0,0,0,0,0,0,0,0,0,0,0,0,0,0,0,0,0,0,0,0,0,0,0,0,0,0,0,0,0,0,0,0
17716,"Coldridge Hill","40",2877,"1","147","482","SS692077","SS 69263 07731","SS689069","97","50","no feature","level summit area","","2012-01-20","","191","113","269260","107725","50.854216","-3.858782","E","",1,0,0,0,0,1,0,0,0,0,0,0,0,0,0,0,0,0,0,0,0,0,0,1,0,0,0,0,0,0,0,0,0,0,0,0,0,0,0,0,0,0,0,0,0,0,0,0,0,0,0,0,0,0,0,0
17717,"Hatherleigh Moor","40",2877,"1","147","482","SS555046","","SS567030","107","40","","","","2012-01-20","","191","113","255500","104600","50.822853","-4.052914","E","",1,0,0,0,0,1,0,0,0,0,0,0,0,0,0,0,0,0,0,0,0,0,0,1,0,0,0,0,0,0,0,0,0,0,0,0,0,0,0,0,0,0,0,0,0,0,0,0,0,0,0,0,0,0,0,0
17718,"Tod Moor","40",2877,"1","146","479","SX616535","","SX614557","69","77","","","","2012-01-20","alternative summit at SX619535","202","OL20W","261600","53500","50.365069","-3.947318","E","",1,0,0,0,0,1,0,0,0,0,0,0,0,0,0,0,0,0,0,0,0,0,0,1,0,0,0,0,0,0,0,0,0,0,0,0,0,0,0,0,0,0,0,0,0,0,0,0,0,0,0,0,0,0,0,0
17719,"Beenleigh Hill","40",2877,"1","146","479","SX798559","","SX794550","82","64","","","","2012-01-20","","202","OL20E","279800","55900","50.390646","-3.692311","E","",1,0,0,0,0,1,0,0,0,0,0,0,0,0,0,0,0,0,0,0,0,0,0,1,0,0,0,0,0,0,0,0,0,0,0,0,0,0,0,0,0,0,0,0,0,0,0,0,0,0,0,0,0,0,0,0
17720,"Broomhill","40",2877,"1","146","479","SS759012","SS 75997 01210","SS758017","104","42","no feature","","","2012-01-20","","191","113","275994","101204","50.797086","-3.760955","E","",1,0,0,0,0,1,0,0,0,0,0,0,0,0,0,0,0,0,0,0,0,0,0,1,0,0,0,0,0,0,0,0,0,0,0,0,0,0,0,0,0,0,0,0,0,0,0,0,0,0,0,0,0,0,0,0
